ID;type;RUIAN;name;partOf;latitude;longitude
102;4;554979;Abertamy;45;50.368857;12.81835
103;4;531367;Adamov;51;49.85787;15.408969
104;4;535826;Adamov;97;49.000597;14.539513
105;4;581291;Adamov;26;49.300526;16.658571
106;4;547786;Adršpach;60;50.618693;16.108665
107;4;598925;Albrechtice;46;49.786434;18.524478
108;4;547981;Albrechtice;94;49.927569;16.644752
109;4;576077;Albrechtice nad Orlicí;78;50.139824;16.064437
110;4;549258;Albrechtice nad Vltavou;73;49.253313;14.302851
111;4;563528;Albrechtice v Jizerských horách;40;50.762353;15.275813
112;4;568741;Albrechtičky;58;49.701682;18.095557
113;4;506761;Alojzov;72;49.423458;17.041509
114;4;538001;Andělská Hora;45;50.20449;12.962883
115;4;551929;Andělská Hora;29;50.06082;17.389148
116;4;573426;Anenská Studánka;94;49.849785;16.540277
117;4;586030;Archlebov;38;49.043608;17.004811
118;4;509388;Arneštovice;65;49.532554;15.117835
119;4;586854;Arnolec;42;49.436181;15.822048
120;4;562343;Arnoltice;35;50.837096;14.264056
121;4;554499;Aš;31;50.223996;12.195074
122;4;569828;Babice;39;50.192145;15.585586
123;4;537241;Babice;69;49.024844;14.237588
124;4;592013;Babice;88;49.121678;17.480754
125;4;538043;Babice;70;50.008055;14.715866
126;4;552356;Babice;61;49.737841;17.260903
127;4;590274;Babice;87;49.12428;15.768867
128;4;582794;Babice nad Svitavou;28;49.283327;16.696149
129;4;582808;Babice u Rosic;28;49.173011;16.358184
130;4;553433;Babylon;34;49.398765;12.862819
131;4;535427;Bakov nad Jizerou;55;50.482367;14.941581
132;4;595217;Baliny;100;49.33551;15.95665
133;4;563251;Balkova Lhota;86;49.452093;14.60825
134;4;593729;Bantice;92;48.883125;16.182391
135;4;572560;Banín;82;49.665642;16.461967
136;4;569836;Barchov;39;50.197648;15.567709
137;4;574724;Barchov;64;49.999358;15.680868
138;4;533173;Barchovice;49;49.944317;14.969162
139;4;548260;Bartoušov;37;49.58113;15.646902
140;4;599212;Bartošovice;58;49.668833;18.054644
141;4;576093;Bartošovice v Orlických horách;78;50.164008;16.547827
142;4;586862;Batelov;42;49.314309;15.39468
143;4;579041;Batňovice;85;50.517631;16.036727
144;4;550809;Bavorov;81;49.121932;14.078944
145;4;584304;Bavory;30;48.834718;16.622241
146;4;534421;Bavoryně;25;49.895889;13.961079
147;4;553701;Bačalky;44;50.385005;15.15351
148;4;576085;Bačetín;78;50.299812;16.233389
149;4;590282;Bačice;87;49.083919;16.027496
150;4;546194;Bačkov;37;49.732962;15.45911
151;4;544833;Bačkovice;87;48.967601;15.589163
152;4;588300;Bařice-Velké Těšany;50;49.245292;17.426129
153;4;598011;Baška;36;49.645829;18.372368
154;4;572667;Bašnice;44;50.334524;15.605105
155;4;538051;Bašť;70;50.205214;14.477375
156;4;566756;Bdeněves;68;49.769636;13.235236
157;4;565423;Bdín;76;50.214228;13.85882
158;4;564575;Bechlín;53;50.416226;14.341007
159;4;552054;Bechyně;86;49.295309;14.468125
160;4;589268;Bedihošť;72;49.448273;17.166455
161;4;562548;Bednárec;43;49.195299;15.093214
162;4;561053;Bednáreček;43;49.210138;15.143952
163;4;581313;Bedřichov;26;49.461206;16.465348
164;4;563536;Bedřichov;40;50.791144;15.142572
165;4;576981;Benecko;79;50.666382;15.548267
166;4;590304;Benetice;87;49.297682;15.867356
167;4;581330;Benešov;26;49.509455;16.770625
168;4;529303;Benešov;24;49.781696;14.687021
169;4;562351;Benešov nad Ploučnicí;35;50.741664;14.312497
170;4;545406;Benešov nad Černou;98;48.72948;14.62737
171;4;576999;Benešov u Semil;79;50.60321;15.368469
172;4;560723;Benešovice;83;49.726966;12.90174
173;4;577774;Benátky;82;49.85422;16.326795
174;4;569861;Benátky;39;50.310237;15.736071
175;4;535451;Benátky nad Jizerou;55;50.290918;14.823514
176;4;531111;Bernardov;51;50.014184;15.398627
177;4;549266;Bernartice;73;49.368973;14.381045
178;4;532568;Bernartice;24;49.675625;15.12919
179;4;524891;Bernartice;41;50.389823;17.078356
180;4;579050;Bernartice;85;50.644722;15.965919
181;4;568481;Bernartice nad Odrou;58;49.610103;17.94781
182;4;531057;Beroun;25;49.964028;14.049775
183;4;545414;Besednice;98;48.790063;14.556888
184;4;560740;Bezdružice;83;49.907353;12.971168
185;4;598895;Bezdědovice;81;49.444278;13.879999
186;4;541095;Bezděkov;77;49.824378;13.596593
187;4;574741;Bezděkov;64;50.008817;15.644727
188;4;548430;Bezděkov;37;49.732877;15.730444
189;4;555801;Bezděkov;48;49.380898;13.227496
190;4;573884;Bezděkov nad Metují;60;50.509772;16.229326
191;4;529672;Bezděkov pod Třemšínem;75;49.577187;13.878501
192;4;561398;Bezděz;96;50.533708;14.722071
193;4;574309;Bezděčí u Trnávky;82;49.692426;16.763476
194;4;593745;Bezkov;92;48.871265;15.951251
195;4;588326;Bezměrov;50;49.329813;17.334807
196;4;535478;Bezno;55;50.367353;14.795705
197;4;512401;Bezuchov;74;49.462731;17.6088
198;4;558656;Bezvěrov;68;49.995116;13.059068
199;4;536156;Bečice;97;49.215756;14.501237
200;4;563366;Bečice;86;49.382743;14.553224
201;4;567043;Bečov;56;50.449809;13.717935
202;4;554995;Bečov nad Teplou;45;50.083563;12.838387
203;4;533181;Bečváry;49;49.956769;15.079873
204;4;512281;Beňov;74;49.417367;17.501368
205;4;532088;Beřovice;47;50.269097;14.123632
206;4;582832;Biskoupky;28;49.097724;16.281293
207;4;573949;Biskupice;33;49.872812;15.512859
208;4;585076;Biskupice;91;49.08311;17.710423
209;4;589284;Biskupice;72;49.459686;17.236619
210;4;572519;Biskupice;82;49.647496;16.758082
211;4;590312;Biskupice-Pulkov;87;49.037708;16.011033
212;4;565997;Bitozeves;54;50.373247;13.64077
213;4;578088;Biřkov;48;49.518153;13.230188
214;4;593761;Blanné;92;48.991981;15.88325
215;4;581283;Blansko;26;49.363161;16.643175
216;4;561401;Blatce;96;50.502954;14.603236
217;4;500801;Blatec;61;49.528356;17.238598
218;4;558672;Blatnice;68;49.719821;13.156038
219;4;590321;Blatnice;87;49.070179;15.871339
220;4;586048;Blatnice pod Svatým Antonínkem;38;48.946732;17.465959
221;4;586056;Blatnička;38;48.935516;17.53004
222;4;562998;Blatno;32;50.511791;13.358155
223;4;566004;Blatno;54;50.097019;13.389771
224;4;550850;Blatná;81;49.424977;13.881794
225;4;542318;Blazice;50;49.442473;17.645319
226;4;561711;Blažejov;43;49.142255;15.096468
227;4;532380;Blažejovice;24;49.619854;15.199975
228;4;566012;Blažim;54;50.406937;13.628661
229;4;566764;Blažim;68;49.916024;13.047675
230;4;595241;Blažkov;100;49.47311;16.185195
231;4;582841;Blažovice;28;49.165709;16.786123
232;4;532100;Blevice;47;50.209802;14.236237
233;4;569879;Blešno;39;50.213953;15.930716
234;4;557587;Blovice;66;49.582294;13.540135
235;4;530964;Bludov;51;49.807548;15.255235
236;4;525588;Bludov;99;49.940822;16.928544
237;4;582859;Blučina;28;49.054993;16.644503
238;4;595250;Blízkov;100;49.400526;15.908735
239;4;553450;Blížejov;34;49.500116;12.989297
240;4;561410;Blíževedly;96;50.608475;14.396589
241;4;593770;Blížkovice;92;48.999807;15.834823
242;4;566021;Blšany;54;50.217432;13.471281
243;4;542547;Blšany u Loun;54;50.347069;13.852733
244;4;537039;Bobnice;59;50.219641;15.053593
245;4;595268;Bobrová;100;49.475129;16.1188
246;4;595276;Bobrůvka;100;49.448678;16.093839
247;4;511633;Bocanovice;36;49.56905;18.738431
248;4;555029;Bochov;45;50.151005;13.045245
249;4;590347;Bochovice;87;49.320867;15.896344
250;4;512532;Bochoř;74;49.421383;17.428377
251;4;569887;Boharyně;39;50.203859;15.63093
252;4;561428;Bohatice;96;50.668998;14.67942
253;4;592897;Bohaté Málkovice;90;49.188652;17.016175
254;4;595284;Bohdalec;100;49.474318;16.059798
255;4;592901;Bohdalice-Pavlovice;90;49.212614;17.02811
256;4;595292;Bohdalov;100;49.479255;15.875852
257;4;536253;Bohdalovice;98;48.74292;14.286764
258;4;547549;Bohdalín;65;49.307743;15.015867
259;4;533980;Bohdaneč;51;49.77823;15.222603
260;4;576115;Bohdašín;78;50.338496;16.225129
261;4;525804;Bohdíkov;99;50.009979;16.904393
262;4;564559;Bohostice;75;49.602222;14.138171
263;4;550116;Bohumilice;69;49.096167;13.816356
264;4;599051;Bohumín;46;49.90409;18.357595
265;4;537527;Bohunice;69;49.132479;13.973203
266;4;573892;Bohuslavice;60;50.312669;16.088663
267;4;589292;Bohuslavice;72;49.620871;16.957586
268;4;506192;Bohuslavice;62;49.942307;18.128709
269;4;586901;Bohuslavice;42;49.14948;15.575831
270;4;525880;Bohuslavice;99;49.826072;16.94058
271;4;557102;Bohuslavice nad Vláří;91;49.09017;17.926315
272;4;585092;Bohuslavice u Zlína;91;49.163104;17.636765
273;4;569178;Bohuslávky;74;49.555161;17.567811
274;4;593788;Bohutice;92;48.991309;16.357641
275;4;525979;Bohutín;99;49.953532;16.881991
276;4;539953;Bohutín;75;49.655603;13.943935
277;4;577812;Bohuňov;82;49.599128;16.463888
278;4;595306;Bohuňov;100;49.560444;16.202479
279;4;577821;Bohuňovice;82;49.907917;16.262916
280;4;500852;Bohuňovice;61;49.663023;17.286969
281;4;550400;Bohušice;87;49.085151;15.852135
282;4;597201;Bohušov;29;50.24329;17.713929
283;4;564591;Bohušovice nad Ohří;53;50.493241;14.150579
284;4;566471;Bohy;68;49.937993;13.575732
285;4;572705;Boháňka;44;50.36584;15.708463
286;4;571202;Bojanov;33;49.841361;15.704934
287;4;539104;Bojanovice;71;49.854516;14.352096
288;4;593796;Bojanovice;92;48.968202;15.989062
289;4;568457;Bojiště;37;49.667843;15.28684
290;4;592048;Bojkovice;88;49.038644;17.814875
291;4;506214;Bolatice;62;49.951712;18.083636
292;4;563005;Boleboř;32;50.540261;13.413431
293;4;576123;Bolehošť;78;50.213663;16.077045
294;4;584321;Boleradice;30;48.9667;16.813923
295;4;545422;Boletice;98;48.824955;14.217338
296;4;555835;Bolešiny;48;49.409996;13.36164
297;4;540463;Bolkov;66;49.533671;13.223907
298;4;560758;Bor;83;49.71171;12.775216
299;4;547867;Bor u Skutče;33;49.822349;16.126999
300;4;595314;Borač;28;49.400848;16.361139
301;4;568431;Bordovice;58;49.54687;18.152649
302;4;548979;Borek;44;50.438909;15.654328
303;4;534684;Borek;70;50.222652;14.647492
304;4;568465;Borek;37;49.791864;15.59003
305;4;544272;Borek;97;49.023464;14.500895
306;4;574783;Borek;64;50.127244;15.856604
307;4;535508;Boreč;55;50.407418;14.732479
308;4;584339;Borkovany;30;49.028187;16.810111
309;4;552097;Borkovice;86;49.208018;14.643451
310;4;576131;Borohrádek;78;50.097809;16.093327
311;4;593800;Borotice;92;48.857328;16.242607
312;4;539970;Borotice;75;49.735048;14.279754
313;4;552101;Borotín;86;49.505101;14.613004
314;4;581356;Borotín;26;49.581372;16.671516
315;4;598780;Borovany;73;49.343073;14.392493
316;4;544281;Borovany;97;48.898675;14.642272
317;4;535681;Borovnice;97;48.912148;14.518995
318;4;532096;Borovnice;24;49.648796;15.018378
319;4;579092;Borovnice;85;50.509203;15.61728
320;4;595322;Borovnice;100;49.667264;16.202592
321;4;576140;Borovnice;78;50.062943;16.245379
322;4;548821;Borovnička;85;50.500911;15.667299
323;4;566705;Borovno;66;49.622075;13.69042
324;4;587184;Borovná;42;49.164652;15.394627
325;4;595331;Borovník;28;49.355591;16.229377
326;4;542156;Borovy;66;49.525203;13.302375
327;4;573906;Borová;60;50.386026;16.253266
328;4;577839;Borová;82;49.741718;16.162279
329;4;545902;Borová Lada;69;48.989929;13.65987
330;4;572632;Borušov;82;49.775862;16.735844
331;4;595641;Bory;100;49.426078;16.028437
332;4;592064;Boršice;88;49.062554;17.35085
333;4;592056;Boršice u Blatnice;88;48.932196;17.575784
334;4;586927;Boršov;42;49.403995;15.434224
335;4;544299;Boršov nad Vltavou;97;48.921857;14.433999
336;4;535516;Boseň;55;50.504164;15.022892
337;4;581372;Boskovice;26;49.487537;16.660002
338;4;593818;Boskovštejn;92;48.98274;15.929558
339;4;562122;Boudy;73;49.448038;14.035522
340;4;571237;Bousov;33;49.901799;15.535482
341;4;589306;Bousín;72;49.455127;16.88977
342;4;500861;Bouzov;61;49.704281;16.892925
343;4;577006;Bozkov;79;50.640124;15.3372
344;4;573558;Boňkov;37;49.547102;15.447507
345;4;538086;Bořanovice;70;50.178308;14.478825
346;4;549690;Bořenovice;50;49.361523;17.564385
347;4;561240;Bořetice;65;49.496126;15.109983
348;4;584347;Bořetice;30;48.913048;16.853062
349;4;562742;Bořetín;43;49.189279;15.211858
350;4;509418;Bořetín;65;49.310197;14.947646
351;4;571229;Bořice;33;49.976892;15.925391
352;4;567469;Bořislav;84;50.579442;13.929301
353;4;581364;Bořitov;26;49.425063;16.591214
354;4;550124;Bošice;69;49.089374;13.840345
355;4;535401;Bošilec;97;49.149388;14.646236
356;4;592919;Bošovice;90;49.053532;16.836769
357;4;548006;Bošín;94;50.034169;16.203027
358;4;573914;Božanov;60;50.52681;16.365377
359;4;547581;Božejov;65;49.362166;15.155824
360;4;549291;Božetice;73;49.451203;14.443932
361;4;593826;Božice;92;48.836904;16.28875
362;4;555045;Božičany;45;50.258059;12.76899
363;4;506486;Boží Dar;45;50.409844;12.924546
364;4;549100;Brada-Rybníček;44;50.467096;15.331868
365;4;570788;Bradlec;55;50.451414;14.910276
366;4;577014;Bradlecká Lhota;79;50.488624;15.396317
367;4;552127;Bradáčov;86;49.491086;14.871151
368;4;530832;Brambory;51;49.978201;15.470274
369;4;567078;Brandov;56;50.6321;13.390819
370;4;538094;Brandýs nad Labem-Stará Boleslav;70;50.187161;14.663333
371;4;579947;Brandýs nad Orlicí;94;50.001976;16.285341
372;4;532118;Brandýsek;47;50.189307;14.162066
373;4;549304;Branice;73;49.402544;14.339569
374;4;551490;Branišov;97;48.978782;14.3957
375;4;593834;Branišovice;28;48.962843;16.43185
376;4;554197;Branka u Opavy;62;49.887955;17.882697
377;4;592927;Brankovice;90;49.155997;17.134816
378;4;541648;Branky;89;49.460954;17.892977
379;4;526169;Branná;99;50.153209;17.011534
380;4;541672;Branov;76;50.012965;13.84298
381;4;590363;Bransouze;87;49.3026;15.751974
382;4;597210;Brantice;29;50.063507;17.629169
383;4;582875;Braníškov;28;49.294403;16.345679
384;4;571946;Branžež;55;50.507644;15.057991
385;4;539988;Bratkovice;75;49.7405;13.998988
386;4;537063;Bratronice;81;49.365346;13.842381
387;4;532142;Bratronice;47;50.067832;14.014227
388;4;569437;Bratrušov;99;50.009365;16.949682
389;4;582883;Bratčice;28;49.065176;16.523088
390;4;531286;Bratčice;51;49.855269;15.430433
391;4;585106;Bratřejov;91;49.222455;17.913329
392;4;547603;Bratřice;65;49.516515;15.001261
393;4;553107;Bratříkovice;62;49.932576;17.687588
394;4;571199;Bratřínov;71;49.842656;14.340193
395;4;556858;Bravantice;58;49.757111;18.082797
396;4;567060;Braňany;56;50.54304;13.700269
397;4;532126;Braškov;47;50.102112;14.100823
398;4;500101;Bražec;45;50.174721;13.046728
399;4;545431;Brloh;98;48.929959;14.218575
400;4;574791;Brloh;64;50.000637;15.557343
401;4;561444;Brniště;96;50.729253;14.703492
402;4;582786;Brno;27;49.195278;16.608333
403;4;530727;Brníčko;99;49.894901;16.968257
404;4;566136;Brnířov;34;49.382698;13.049616
405;4;577863;Brněnec;82;49.627378;16.52206
406;4;584355;Brod nad Dyjí;30;48.875239;16.535376
407;4;541605;Brod nad Tichou;83;49.835401;12.741148
408;4;535559;Brodce;55;50.330743;14.869256
409;4;546895;Brodec;54;50.295009;13.801698
410;4;589314;Brodek u Konice;72;49.562028;16.855688
411;4;589322;Brodek u Prostějova;72;49.369981;17.09008
412;4;512800;Brodek u Přerova;74;49.484199;17.338275
413;4;566489;Brodeslavy;68;49.953767;13.557052
414;4;573922;Broumov;60;50.58569;16.331905
415;4;541401;Broumov;83;49.889485;12.606752
416;4;531081;Broumy;25;49.955155;13.852324
417;4;564621;Brozany nad Ohří;53;50.45374;14.145494
418;4;586943;Brtnice;42;49.306995;15.676443
419;4;590371;Brtnička;42;49.23723;15.624235
420;4;581402;Brumov;28;49.462415;16.425782
421;4;585114;Brumov-Bylnice;91;49.090871;18.0231
422;4;506320;Brumovice;62;50.015294;17.749636
423;4;584363;Brumovice;30;48.960817;16.896155
424;4;597180;Bruntál;29;49.988449;17.464759
425;4;588377;Brusné;50;49.363343;17.660719
426;4;598046;Bruzovice;36;49.716977;18.409678
427;4;598038;Brušperk;36;49.700085;18.222134
428;4;573931;Brzice;60;50.444429;15.958393
429;4;586951;Brzkov;42;49.526014;15.727172
430;4;546755;Brzánky;53;50.461915;14.301279
431;4;538108;Brázdim;70;50.183061;14.587344
432;4;564613;Brňany;53;50.48105;14.14195
433;4;581381;Brťov-Jeneč;26;49.414067;16.516206
434;4;560308;Bublava;80;50.374502;12.505258
435;4;531103;Bubovice;25;49.969738;14.166558
436;4;592102;Buchlovice;88;49.086282;17.338527
437;4;595390;Budeč;100;49.536413;15.912354
438;4;546020;Budeč;43;49.087227;15.589884
439;4;537055;Budiměřice;59;50.195385;15.098838
440;4;577910;Budislav;82;49.801448;16.174685
441;4;552143;Budislav;86;49.293907;14.837441
442;4;590401;Budišov;87;49.271424;16.003855
443;4;506460;Budišov nad Budišovkou;62;49.795113;17.629731
444;4;568261;Budišovice;62;49.861312;18.03966
445;4;561576;Budkov;69;49.070139;14.006987
446;4;590410;Budkov;87;49.054539;15.658938
447;4;560171;Budyně;81;49.146383;14.07118
448;4;564656;Budyně nad Ohří;53;50.404354;14.125997
449;4;547638;Budíkov;65;49.579197;15.362641
450;4;546038;Budíškovice;43;49.0763;15.530916
451;4;548952;Budčeves;44;50.308529;15.254617
452;4;555894;Budětice;48;49.283459;13.584693
453;4;589349;Budětsko;72;49.587049;16.92691
454;4;545449;Bujanov;98;48.702406;14.429645
455;4;559741;Bujesily;77;49.91467;13.574445
456;4;512826;Buk;74;49.504452;17.468744
457;4;537519;Buk;69;49.037998;13.845159
458;4;595403;Bukov;100;49.454339;16.223592
459;4;564664;Bukovany;75;49.574596;14.102577
460;4;552402;Bukovany;61;49.60527;17.343523
461;4;532924;Bukovany;24;49.822867;14.624338
462;4;586072;Bukovany;38;49.042183;17.10086
463;4;560316;Bukovany;80;50.166444;12.572728
464;4;553506;Bukovec;66;49.586461;12.995349
465;4;511935;Bukovec;36;49.551118;18.826857
466;4;547751;Bukovice;60;50.549581;16.228026
467;4;581437;Bukovice;28;49.406758;16.489747
468;4;581445;Bukovina;26;49.297532;16.773183
469;4;574813;Bukovina nad Labem;64;50.124904;15.823349
470;4;574821;Bukovina u Přelouče;64;49.948288;15.562932
471;4;577031;Bukovina u Čisté;79;50.542642;15.583928
472;4;581453;Bukovinka;26;49.294202;16.804954
473;4;574830;Bukovka;64;50.101079;15.625372
474;4;535605;Bukovno;55;50.446827;14.84067
475;4;530085;Bukovník;48;49.222577;13.661347
476;4;589357;Buková;72;49.50976;16.829159
477;4;546372;Buková;66;49.537492;13.158795
478;4;540021;Buková u Příbramě;75;49.755218;14.066629
479;4;573353;Bukvice;44;50.41254;15.294618
480;4;584380;Bulhary;30;48.831492;16.748734
481;4;563935;Bulovka;52;50.971198;15.12368
482;4;549282;Butoves;44;50.386502;15.427495
483;4;529966;Buzice;81;49.422713;13.932644
484;4;579963;Bučina;94;49.896908;16.192892
485;4;592943;Bučovice;90;49.148974;17.001918
486;4;558699;Bučí;68;49.885269;13.30283
487;4;561312;Buřenice;65;49.552775;15.066265
488;4;540048;Buš;71;49.803244;14.3837
489;4;550159;Bušanovice;69;49.115526;13.934704
490;4;559750;Bušovice;77;49.79562;13.534713
491;4;532169;Buštěhrad;47;50.15602;14.18905
492;4;532894;Bušín;99;49.976149;16.837932
493;4;534145;Bykoš;25;49.883037;14.063718
494;4;571245;Bylany;33;49.957321;15.733217
495;4;544647;Bynovec;35;50.820906;14.264288
496;4;547026;Bystrovany;61;49.597027;17.323683
497;4;500879;Bystročice;61;49.536261;17.193552
498;4;561801;Bystrá;65;49.508524;15.37122
499;4;577049;Bystrá nad Jizerou;79;50.604785;15.401967
500;4;577928;Bystré;82;49.62849;16.346828
501;4;576166;Bystré;78;50.32149;16.255308
502;4;567477;Bystřany;84;50.628757;13.86429
503;4;579971;Bystřec;94;50.011708;16.619062
504;4;529451;Bystřice;24;49.732203;14.667451
505;4;572772;Bystřice;44;50.392939;15.244198
506;4;598062;Bystřice;36;49.636547;18.72041
507;4;595411;Bystřice nad Pernštejnem;100;49.522981;16.261501
508;4;588393;Bystřice pod Hostýnem;50;49.399239;17.674035
509;4;592111;Bystřice pod Lopeníkem;88;48.974823;17.764048
510;4;541711;Bystřička;89;49.415307;17.974012
511;4;576174;Byzhradec;78;50.215876;16.190269
512;4;534722;Byšice;57;50.310513;14.611445
513;4;586081;Bzenec;38;48.973376;17.266853
514;4;531120;Bzová;25;49.897975;13.86246
515;4;561118;Bácovice;65;49.476781;15.167351
516;4;592021;Bánov;88;48.988015;17.717521
517;4;562726;Báňovice;43;49.011807;15.490247
518;4;562980;Bílence;32;50.424646;13.505989
519;4;535125;Bílichov;47;50.262133;13.916431
520;4;567451;Bílina;84;50.548631;13.775445
521;4;530743;Bílkovice;24;49.759786;14.861002
522;4;530239;Bílov;68;50.017956;13.424908
523;4;546984;Bílov;58;49.734065;18.001645
524;4;599247;Bílovec;58;49.75638;18.015853
525;4;592030;Bílovice;88;49.099655;17.549614
526;4;582824;Bílovice nad Svitavou;28;49.247104;16.672488
527;4;589276;Bílovice-Lutotín;72;49.511004;17.040084
528;4;550833;Bílsko;81;49.159126;14.059025
529;4;552062;Bílsko;61;49.644578;17.019709
530;4;548901;Bílsko u Hořic;44;50.369437;15.600582
531;4;563901;Bílá;52;50.664889;15.035516
532;4;598020;Bílá;36;49.442055;18.452948
533;4;565750;Bílá Hlína;55;50.532565;14.925345
534;4;500623;Bílá Lhota;61;49.709547;16.975117
535;4;579068;Bílá Třemešná;85;50.444694;15.741102
536;4;525227;Bílá Voda;41;50.441964;16.915776
537;4;533971;Bílé Podolí;51;49.956537;15.491083
538;4;579076;Bílé Poličany;85;50.39084;15.731964
539;4;563919;Bílý Kostel nad Nisou;52;50.823206;14.924509
540;4;586889;Bílý Kámen;42;49.436294;15.508865
541;4;546631;Bílý Potok;52;50.873795;15.222208
542;4;576107;Bílý Újezd;78;50.238477;16.225341
543;4;597198;Bílčice;29;49.86962;17.565555
544;4;535486;Bítouchov;55;50.475844;14.889507
545;4;593753;Bítov;92;48.936343;15.728977
546;4;554936;Bítov;58;49.800316;18.047528
547;4;505005;Bítovany;33;49.89725;15.864682
548;4;586897;Bítovčice;42;49.368083;15.734077
549;4;533238;Býchory;49;50.067683;15.273534
550;4;534714;Býkev;57;50.347243;14.418107
551;4;569607;Býkov-Láryšov;29;50.052631;17.689369
552;4;581461;Býkovice;26;49.430231;16.538309
553;4;546780;Býčkovice;53;50.559855;14.213613
554;4;512877;Býškovice;74;49.467467;17.714082
555;4;595420;Býšovec;100;49.475242;16.289325
556;4;574848;Býšť;64;50.132475;15.91123
557;4;572675;Běchary;44;50.314085;15.292593
558;4;541842;Běhařov;48;49.344877;13.160215
559;4;593737;Běhařovice;92;49.003976;16.078627
560;4;560448;Běleč;86;49.543744;14.837292
561;4;581321;Běleč;28;49.433968;16.383159
562;4;535010;Běleč;47;50.05625;13.993044
563;4;569852;Běleč nad Orlicí;39;50.198023;15.942774
564;4;500526;Bělkovice-Lašťany;61;49.668668;17.317222
565;4;532070;Běloky;47;50.131516;14.220828
566;4;512231;Bělotín;74;49.5912;17.806573
567;4;588318;Bělov;91;49.215997;17.484784
568;4;567051;Bělušice;56;50.449246;13.762909
569;4;533190;Bělušice;49;50.069126;15.321964
570;4;561126;Bělá;65;49.312574;15.260638
571;4;573566;Bělá;37;49.752267;15.237346
572;4;512974;Bělá;62;49.97232;18.144942
573;4;576972;Bělá;79;50.53393;15.444969
574;4;553441;Bělá nad Radbuzou;34;49.591266;12.717652
575;4;572586;Bělá nad Svitavou;82;49.640217;16.482669
576;4;535443;Bělá pod Bezdězem;55;50.501214;14.804181
577;4;523917;Bělá pod Pradědem;41;50.131605;17.215914
578;4;505391;Bělá u Jevíčka;82;49.639519;16.645943
579;4;550817;Bělčice;81;49.502501;13.875789
580;4;537021;Běrunice;59;50.185797;15.333663
581;4;553760;Běstovice;94;50.020173;16.210984
582;4;571181;Běstvina;33;49.837083;15.595817
583;4;555797;Běšiny;48;49.301704;13.3126
584;4;531073;Běštín;25;49.807387;14.016288
585;4;559725;Břasy;77;49.837097;13.578389
586;4;584291;Břeclav;30;48.758991;16.882021
587;4;536059;Břehov;97;49.022365;14.330579
588;4;574805;Břehy;64;50.051943;15.577543
589;4;588385;Břest;50;49.351075;17.440738
590;4;592072;Břestek;88;49.094895;17.355923
591;4;548278;Břevnice;37;49.63131;15.612636
592;4;595349;Březejc;100;49.346337;16.091483
593;4;559733;Březina;77;49.807631;13.596849
594;4;507733;Březina;43;49.290602;14.909682
595;4;535567;Březina;55;50.548607;15.032889
596;4;549070;Březina;44;50.434348;15.313349
597;4;581429;Březina;28;49.281622;16.749537
598;4;582891;Březina;28;49.321267;16.42144
599;4;592935;Březina;90;49.368418;16.960862
600;4;577871;Březina;82;49.651067;16.614528
601;4;572250;Březinky;82;49.662709;16.786966
602;4;577898;Březiny;82;49.690663;16.118173
603;4;540013;Březnice;75;49.557721;13.950671
604;4;552135;Březnice;86;49.251846;14.514011
605;4;538744;Březnice;91;49.186434;17.662785
606;4;535583;Březno;55;50.406252;15.005564
607;4;563013;Březno;32;50.401952;13.421271
608;4;590380;Březník;87;49.172091;16.194115
609;4;592081;Březolupy;88;49.121389;17.58035
610;4;599514;Březovice;55;50.470783;14.733695
611;4;537870;Březová;45;50.195391;12.866898
612;4;560294;Březová;80;50.14569;12.650038
613;4;585131;Březová;91;49.260265;17.791259
614;4;506451;Březová;62;49.791576;17.865601
615;4;592099;Březová;88;48.925431;17.739854
616;4;531090;Březová;25;49.904167;13.883069
617;4;505145;Březová nad Svitavou;82;49.644206;16.518031
618;4;599735;Březová-Oleško;71;49.914365;14.416359
619;4;589331;Březsko;72;49.608613;16.892471
620;4;595381;Březské;100;49.329953;16.238191
621;4;530018;Březí;81;49.507859;13.797517
622;4;595357;Březí;100;49.343214;16.215966
623;4;564869;Březí;70;50.014733;14.699349
624;4;584371;Březí;30;48.819307;16.567475
625;4;595365;Březí nad Oslavou;100;49.502934;15.935627
626;4;585149;Březůvky;91;49.15333;17.699628
627;4;541923;Břežany;48;49.348853;13.617385
628;4;565041;Břežany;76;50.006949;13.582854
629;4;593842;Břežany;92;48.869958;16.341748
630;4;533211;Břežany I;49;50.034986;15.079016
631;4;533220;Břežany II;49;50.093828;14.804367
632;4;597228;Břidličná;29;49.911676;17.371126
633;4;566063;Břvany;54;50.401238;13.721626
634;4;537047;Bříství;59;50.133992;14.841811
635;4;564648;Bříza;53;50.360591;14.216343
636;4;548855;Bříšťany;44;50.31629;15.620899
637;4;567485;Bžany;84;50.589563;13.878806
638;4;560782;Cebiv;83;49.82945;12.979122
639;4;550906;Cehnice;81;49.21515;14.029413
640;4;586978;Cejle;42;49.369352;15.472803
641;4;559768;Cekov;77;49.821954;13.763849
642;4;509191;Cep;43;48.91957;14.807363
643;4;572781;Cerekvice nad Bystřicí;44;50.333293;15.72361
644;4;577936;Cerekvice nad Loučnou;82;49.898927;16.215246
645;4;586986;Cerekvička-Rosice;42;49.334419;15.587318
646;4;533246;Cerhenice;49;50.071335;15.072103
647;4;549321;Cerhonice;73;49.418078;14.055669
648;4;531138;Cerhovice;25;49.849627;13.834885
649;4;588407;Cetechovice;50;49.172303;17.261388
650;4;563943;Cetenov;52;50.644485;14.917698
651;4;581470;Cetkovice;26;49.578809;16.721282
652;4;547662;Cetoraz;65;49.455298;14.957343
653;4;564419;Cetyně;75;49.599707;14.121393
654;4;568007;Chabařovice;93;50.673267;13.941948
655;4;534081;Chabeřice;51;49.750206;15.073843
656;4;531251;Chaloupky;25;49.79136;13.871803
657;4;556335;Chanovice;48;49.404989;13.717391
658;4;565784;Charvatce;55;50.322687;14.998694
659;4;568872;Charváty;61;49.518375;17.253991
660;4;563081;Chbany;32;50.332872;13.430462
661;4;554481;Cheb;31;50.079759;12.373996
662;4;551139;Chelčice;81;49.121867;14.169131
663;4;559857;Cheznovice;77;49.779017;13.785438
664;4;512923;Chlebičov;62;49.959413;17.967536
665;4;532878;Chleby;24;49.827076;14.556936
666;4;599620;Chleby;59;50.222876;15.089467
667;4;576310;Chleny;78;50.077912;16.243807
668;4;556343;Chlistov;48;49.319995;13.360906
669;4;529982;Chlum;81;49.447288;13.851124
670;4;590711;Chlum;87;49.31347;15.767079
671;4;540803;Chlum;77;49.935776;13.659744
672;4;557773;Chlum;66;49.605297;13.479243
673;4;561614;Chlum;96;50.578507;14.562761
674;4;529770;Chlum;24;49.693066;14.995803
675;4;560375;Chlum Svaté Maří;80;50.149957;12.535723
676;4;546461;Chlum u Třeboně;43;48.962414;14.927997
677;4;595705;Chlum-Korouhvice;100;49.575964;16.320875
678;4;550248;Chlumany;69;49.066653;13.965375
679;4;568015;Chlumec;93;50.699804;13.939746
680;4;536229;Chlumec;98;48.870338;14.395881
681;4;570109;Chlumec nad Cidlinou;39;50.154454;15.460335
682;4;595713;Chlumek;100;49.374528;15.854784
683;4;540307;Chlumy;66;49.437849;13.638643
684;4;534820;Chlumín;57;50.289189;14.449358
685;4;566233;Chlumčany;54;50.335026;13.843303
686;4;557781;Chlumčany;66;49.632661;13.313275
687;4;595721;Chlumětín;100;49.727526;16.003121
688;4;534455;Chlustina;25;49.878026;13.919579
689;4;548791;Chlístov;78;50.322405;16.169538
690;4;532045;Chlístov;24;49.801593;14.654771
691;4;590703;Chlístov;87;49.202104;15.743692
692;4;534099;Chlístovice;51;49.885774;15.202551
693;4;529788;Chmelná;24;49.648166;14.988397
694;4;572730;Chmelík;82;49.773421;16.332827
695;4;536903;Chobot;81;49.462499;13.933751
696;4;557803;Chocenice;66;49.547638;13.520087
697;4;529796;Chocerady;24;49.87297;14.802127
698;4;580350;Choceň;94;50.001639;16.223088
699;4;535923;Chocnějovice;55;50.576967;14.971486
700;4;553727;Chocomyšl;34;49.467281;13.1307
701;4;564923;Chodouny;53;50.473248;14.250573
702;4;534447;Chodouň;25;49.898269;13.986621
703;4;578011;Chodov;45;50.068628;12.862974
704;4;560383;Chodov;80;50.241451;12.753404
705;4;553735;Chodov;34;49.418092;12.830272
706;4;564931;Chodovlice;53;50.463189;13.993354
707;4;560901;Chodová Planá;83;49.893328;12.730203
708;4;553743;Chodská Lhota;34;49.358456;13.083196
709;4;560910;Chodský Újezd;83;49.864432;12.649994
710;4;549355;Cholenice;44;50.324783;15.280739
711;4;502839;Cholina;61;49.656115;17.054447
712;4;575054;Choltice;64;49.987771;15.619472
713;4;541141;Chomle;77;49.862369;13.634561
714;4;572969;Chomutice;44;50.359322;15.496265
715;4;562971;Chomutov;32;50.462778;13.411111
716;4;588504;Chomýž;50;49.362376;17.645426
717;4;532606;Choratice;24;49.839393;14.874741
718;4;578096;Chornice;82;49.667402;16.742667
719;4;534838;Chorušice;57;50.390649;14.670853
720;4;542831;Choryně;89;49.495743;17.89864
721;4;549037;Choteč;44;50.432907;15.516018
722;4;575062;Choteč;64;50.083071;15.880303
723;4;539287;Choteč;71;49.986633;14.28298
724;4;540323;Chotilsko;75;49.770562;14.352532
725;4;564958;Chotiměř;53;50.548305;14.000982
726;4;564966;Chotiněves;53;50.552161;14.27934
727;4;561622;Chotovice;96;50.740357;14.559381
728;4;578118;Chotovice;82;49.851088;16.171302
729;4;552461;Chotoviny;86;49.4781;14.676981
730;4;534102;Chotusice;51;49.949194;15.394341
731;4;533343;Chotutice;49;50.070038;14.989948
732;4;564109;Chotyně;52;50.83628;14.869042
733;4;558940;Chotíkov;68;49.793046;13.31772
734;4;535907;Chotýčany;97;49.067366;14.520604
735;4;529818;Chotýšany;24;49.744168;14.814629
736;4;568759;Chotěboř;37;49.720766;15.670229
737;4;550477;Chotěbudice;87;49.058037;15.574008
738;4;555291;Chotěbuz;46;49.768472;18.569163
739;4;552453;Chotěmice;86;49.275288;14.876958
740;4;578100;Chotěnov;82;49.823292;16.189919
741;4;535931;Chotětov;55;50.337499;14.8016
742;4;579319;Chotěvice;85;50.521442;15.766786
743;4;537225;Chotěšice;59;50.278618;15.273138
744;4;564940;Chotěšov;53;50.439869;14.085235
745;4;557838;Chotěšov;66;49.654187;13.202761
746;4;552470;Choustník;86;49.33301;14.838417
747;4;579327;Choustníkovo Hradiště;85;50.426456;15.878663
748;4;534994;Choťovice;49;50.142443;15.319747
749;4;537217;Choťánky;59;50.13822;15.162507
750;4;566241;Chožov;54;50.398853;13.859082
751;4;546429;Chraberce;54;50.40834;13.829587
752;4;571539;Chrast;33;49.902091;15.934019
753;4;564117;Chrastava;52;50.816986;14.968948
754;4;578126;Chrastavec;82;49.617787;16.503179
755;4;553751;Chrastavice;34;49.453665;12.956849
756;4;540358;Chraštice;75;49.576872;14.07187
757;4;563145;Chrbonín;86;49.358731;14.864326
758;4;550264;Chroboly;69;48.956615;14.066987
759;4;569305;Chromeč;99;49.933767;16.89373
760;4;588512;Chropyně;50;49.35645;17.364532
761;4;534706;Chroustov;59;50.286643;15.347248
762;4;571547;Chroustovice;33;49.955565;15.991491
763;4;572764;Chrtníky;64;49.981848;15.604912
764;4;568767;Chrtníč;37;49.767594;15.443665
765;4;581534;Chrudichromy;26;49.502923;16.628025
766;4;571164;Chrudim;33;49.951136;15.795636
767;4;533670;Chrustenice;25;50.006123;14.152284
768;4;558966;Chrást;67;49.793296;13.493636
769;4;537233;Chrást;59;50.11898;14.898201
770;4;564249;Chrást;75;49.594836;13.955866
771;4;544591;Chrášťany;97;49.296061;14.387544
772;4;539295;Chrášťany;71;50.046124;14.261384
773;4;532037;Chrášťany;24;49.792125;14.58198
774;4;541818;Chrášťany;76;50.14653;13.667353
775;4;533351;Chrášťany;49;50.065547;14.930214
776;4;551155;Chrášťovice;81;49.333276;13.897065
777;4;532398;Chržín;47;50.295452;14.270212
778;4;577154;Chuchelna;79;50.604501;15.301969
779;4;507334;Chuchelná;62;49.986627;18.116615
780;4;556378;Chudenice;48;49.466783;13.1739
781;4;556386;Chudenín;48;49.29315;13.100826
782;4;568023;Chuderov;93;50.688728;14.046279
783;4;570125;Chudeřice;39;50.149089;15.550938
784;4;546810;Chudoslavice;53;50.583003;14.187335
785;4;571849;Chudíř;55;50.308854;15.013883
786;4;583111;Chudčice;28;49.288522;16.458745
787;4;594164;Chvalatice;92;48.947757;15.75106
788;4;575071;Chvaletice;64;50.034485;15.418523
789;4;579335;Chvaleč;85;50.595937;16.039401
790;4;574112;Chvalkovice;60;50.414377;15.978373
791;4;593095;Chvalkovice;90;49.187041;17.110118
792;4;588547;Chvalnov-Lísky;50;49.166816;17.233251
793;4;537420;Chvalovice;69;49.010429;14.231713
794;4;594172;Chvalovice;92;48.786618;16.082343
795;4;569909;Chvalíkovice;62;49.885635;17.910995
796;4;506737;Chvalčov;50;49.389183;17.711509
797;4;545546;Chvalšiny;98;48.8541;14.211143
798;4;534846;Chvatěruby;57;50.232816;14.342759
799;4;575089;Chvojenec;64;50.109618;15.937291
800;4;557846;Chválenice;67;49.643086;13.475992
801;4;549223;Chyjice;44;50.387689;15.29555
802;4;531294;Chyňava;25;50.027446;14.074052
803;4;555207;Chyše;45;50.104731;13.24914
804;4;549452;Chyšky;73;49.523533;14.427607
805;4;561321;Chyšná;65;49.586427;15.099967
806;4;532886;Chářovice;24;49.820323;14.577917
807;4;513431;Chýnice;71;49.995768;14.264344
808;4;552496;Chýnov;86;49.406838;14.811248
809;4;539309;Chýně;71;50.060803;14.227016
810;4;561339;Chýstovice;65;49.585741;15.079604
811;4;575097;Chýšť;64;50.128209;15.541355
812;4;573574;Chřenovice;37;49.716697;15.216315
813;4;562530;Chřibská;35;50.863314;14.483086
814;4;558974;Chříč;68;49.971907;13.645958
815;4;590428;Cidlina;87;49.128241;15.73555
816;4;588016;Cikháj;100;49.644888;15.967428
817;4;560324;Citice;80;50.162678;12.613401
818;4;593851;Citonice;92;48.883998;15.964466
819;4;512982;Citov;74;49.467729;17.325482
820;4;546054;Cizkrajov;43;49.030604;15.389663
821;4;579980;Cotkytle;94;49.936206;16.724091
822;4;554162;Crhov;26;49.545042;16.434758
823;4;532690;Ctiboř;24;49.73673;14.904247
824;4;579459;Ctiboř;83;49.827337;12.610065
825;4;593869;Ctidružice;92;48.98256;15.859994
826;4;570991;Ctiměřice;55;50.377851;14.993444
827;4;564672;Ctiněves;53;50.374775;14.307201
828;4;571253;Ctětín;33;49.830299;15.839472
829;4;561479;Cvikov;96;50.776745;14.633086
830;4;532185;Cvrčovice;47;50.179874;14.154863
831;4;550272;Cvrčovice;28;48.993699;16.514481
832;4;533998;Církvice;51;49.945657;15.335109
833;4;599476;Církvice;49;49.909417;15.015772
834;4;569135;Císařov;74;49.466045;17.352632
835;4;542571;Cítoliby;54;50.332818;13.812222
836;4;534731;Cítov;57;50.372327;14.398221
837;4;540099;Daleké Dušníky;75;49.727511;14.186581
838;4;595454;Dalečín;100;49.591305;16.240119
839;4;530425;Dalešice;40;50.681814;15.184675
840;4;590517;Dalešice;87;49.129044;16.08192
841;4;537918;Dalovice;45;50.247899;12.89589
842;4;570818;Dalovice;55;50.425751;14.880023
843;4;586129;Dambořice;38;49.038304;16.917578
844;4;593907;Damnice;92;48.920346;16.374101
845;4;580074;Damníkov;94;49.871272;16.560303
846;4;568228;Darkovice;62;49.935906;18.222178
847;4;552445;Daskabát;61;49.57855;17.447276
848;4;560332;Dasnice;80;50.146573;12.567304
849;4;535249;Dasný;97;49.019312;14.407423
850;4;539163;Davle;71;49.892254;14.400431
851;4;546127;Dačice;43;49.081599;15.437279
852;4;595462;Daňkovice;100;49.654019;16.148649
853;4;574899;Dašice;64;50.028486;15.912504
854;4;582948;Deblín;28;49.320392;16.34646
855;4;561924;Dehtáře;65;49.486158;15.275318
856;4;572357;Desná;82;49.807577;16.224098
857;4;563552;Desná;40;50.759923;15.302947
858;4;556041;Dešenice;48;49.274408;13.170973
859;4;546143;Dešná;43;48.957627;15.54283
860;4;585157;Dešná;91;49.266607;17.845933
861;4;590533;Dešov;87;48.985672;15.701415
862;4;566128;Deštnice;54;50.230726;13.609884
863;4;581518;Deštná;26;49.612581;16.563592
864;4;546151;Deštná;43;49.2652;14.92398
865;4;576247;Deštné v Orlických horách;78;50.304676;16.350725
866;4;569941;Divec;39;50.239817;15.92173
867;4;529621;Divišov;24;49.788556;14.875843
868;4;584401;Diváky;30;48.988718;16.791767
869;4;564737;Dlažkovice;53;50.465635;13.965042
870;4;556068;Dlažov;48;49.365853;13.166376
871;4;533688;Dlouhomilov;99;49.906915;16.991359
872;4;537098;Dlouhopolsko;59;50.175268;15.306199
873;4;548031;Dlouhoňovice;94;50.070226;16.441605
874;4;587010;Dlouhá Brtnice;42;49.236125;15.604187
875;4;563650;Dlouhá Lhota;86;49.352584;14.788978
876;4;513504;Dlouhá Lhota;75;49.721203;14.120649
877;4;581526;Dlouhá Lhota;26;49.428686;16.509624
878;4;535656;Dlouhá Lhota;55;50.42016;15.054204
879;4;577987;Dlouhá Loučka;82;49.700873;16.641332
880;4;501476;Dlouhá Loučka;61;49.816271;17.179723
881;4;551708;Dlouhá Stráň;29;49.959984;17.500859
882;4;548014;Dlouhá Třebová;94;49.940429;16.42335
883;4;568538;Dlouhá Ves;37;49.578601;15.674785
884;4;556076;Dlouhá Ves;48;49.196375;13.509279
885;4;595471;Dlouhé;100;49.509018;16.123077
886;4;530468;Dlouhý Most;52;50.711671;15.075974
887;4;560839;Dlouhý Újezd;83;49.768412;12.628522
888;4;557668;Dnešice;66;49.604925;13.26459
889;4;593923;Dobelice;92;49.017278;16.278633
890;4;549363;Dobev;73;49.295809;14.047123
891;4;562408;Dobkovice;35;50.714924;14.193254
892;4;552542;Dobratice;36;49.660373;18.492298
893;4;585165;Dobrkovice;91;49.094458;17.669515
894;4;545783;Dobrná;35;50.769618;14.293374
895;4;589438;Dobrochov;72;49.385877;17.10559
896;4;562416;Dobrohošť;43;49.07844;15.488493
897;4;589446;Dobromilice;72;49.358455;17.141563
898;4;546861;Dobroměřice;54;50.370181;13.794821
899;4;552224;Dobronice u Bechyně;86;49.343383;14.496763
900;4;587028;Dobronín;42;49.478377;15.649953
901;4;569895;Dobroslavice;62;49.880325;18.14097
902;4;587036;Dobroutov;42;49.462289;15.736519
903;4;535672;Dobrovice;55;50.369388;14.962418
904;4;529559;Dobrovítov;51;49.787589;15.328764
905;4;539171;Dobrovíz;71;50.113139;14.217806
906;4;592986;Dobročkovice;90;49.162952;17.109005
907;4;565008;Dobročovice;70;50.056388;14.699978
908;4;576271;Dobruška;78;50.292047;16.160092
909;4;598089;Dobrá;36;49.673812;18.413963
910;4;561932;Dobrá Voda;65;49.358203;15.270028
911;4;595489;Dobrá Voda;100;49.393936;16.065068
912;4;572837;Dobrá Voda u Hořic;44;50.348044;15.602651
913;4;561762;Dobrá Voda u Pacova;65;49.404341;15.027738
914;4;535206;Dobrá Voda u Českých Budějovic;97;48.968284;14.524943
915;4;576263;Dobré;78;50.269789;16.263838
916;4;584410;Dobré Pole;30;48.824367;16.535174
917;4;513105;Dobrčice;74;49.402036;17.48051
918;4;530123;Dobršín;48;49.261391;13.561073
919;4;557676;Dobřany;66;49.654928;13.293117
920;4;576280;Dobřany;78;50.322155;16.285372
921;4;538167;Dobřejovice;70;49.981687;14.578328
922;4;569968;Dobřenice;39;50.147769;15.641113
923;4;531570;Dobřeň;57;50.479474;14.556796
924;4;533289;Dobřichov;49;50.079691;15.032436
925;4;539198;Dobřichovice;71;49.927573;14.274757
926;4;580091;Dobříkov;94;50.002542;16.133878
927;4;593931;Dobřínsko;92;49.052248;16.261675
928;4;559776;Dobřív;77;49.71575;13.686865
929;4;558770;Dobříč;68;49.884651;13.468426
930;4;539180;Dobříč;71;50.019997;14.258977
931;4;564745;Dobříň;53;50.437665;14.293872
932;4;540111;Dobříš;75;49.781216;14.167221
933;4;537101;Dobšice;59;50.132491;15.268682
934;4;536199;Dobšice;97;49.215975;14.483805
935;4;546941;Dobšice;92;48.848387;16.085409
936;4;571989;Dobšín;55;50.483383;15.116746
937;4;569976;Dohalice;39;50.287317;15.69458
938;4;564753;Doksany;53;50.454968;14.161222
939;4;532223;Doksy;47;50.119082;14.047894
940;4;561495;Doksy;96;50.564782;14.655623
941;4;558788;Dolany;68;49.807915;13.472413
942;4;501646;Dolany;61;49.649884;17.32244
943;4;513130;Dolany;47;50.115549;14.149755
944;4;574015;Dolany;60;50.380039;15.961359
945;4;556106;Dolany;48;49.443364;13.248152
946;4;574902;Dolany;64;50.113421;15.691671
947;4;539201;Dolany nad Vltavou;57;50.222114;14.349599
948;4;539945;Dolce;66;49.55296;13.393447
949;4;593958;Dolenice;92;48.909167;16.365651
950;4;506702;Dolní Benešov;62;49.921002;18.108402
951;4;505030;Dolní Bezděkov;33;49.96048;15.883832
952;4;541800;Dolní Bečva;89;49.454966;18.194212
953;4;534765;Dolní Beřkovice;57;50.393208;14.450332
954;4;586137;Dolní Bojanovice;38;48.858627;17.028581
955;4;535702;Dolní Bousov;55;50.438306;15.128214
956;4;579122;Dolní Branná;85;50.593212;15.593914
957;4;554863;Dolní Brusnice;85;50.458788;15.726859
958;4;544388;Dolní Bukovsko;97;49.170934;14.581287
959;4;558796;Dolní Bělá;68;49.896259;13.27332
960;4;539210;Dolní Břežany;71;49.963286;14.458569
961;4;587044;Dolní Cerekev;42;49.344541;15.456574
962;4;533297;Dolní Chvatliny;49;49.980562;15.069348
963;4;580121;Dolní Dobrouč;94;49.99276;16.497719
964;4;598101;Dolní Domaslavice;36;49.709813;18.477388
965;4;593966;Dolní Dubňany;92;49.055824;16.226706
966;4;584428;Dolní Dunajovice;30;48.8545;16.592827
967;4;545465;Dolní Dvořiště;98;48.656499;14.452206
968;4;579149;Dolní Dvůr;85;50.652294;15.655677
969;4;545856;Dolní Habartice;35;50.747253;14.333388
970;4;540129;Dolní Hbity;75;49.657536;14.169877
971;4;595501;Dolní Heřmanice;100;49.304791;16.060127
972;4;552241;Dolní Hořice;86;49.435447;14.850562
973;4;560529;Dolní Hrachovice;86;49.486148;14.797136
974;4;558800;Dolní Hradiště;68;49.913833;13.496273
975;4;579157;Dolní Kalná;85;50.53892;15.639288
976;4;582956;Dolní Kounice;28;49.070143;16.464929
977;4;529648;Dolní Kralovice;24;49.645009;15.178708
978;4;568597;Dolní Krupá;37;49.660683;15.60308
979;4;535711;Dolní Krupá;55;50.546381;14.867258
980;4;587664;Dolní Lažany;87;49.099979;15.822725
981;4;506711;Dolní Lhota;63;49.842351;18.092456
982;4;585173;Dolní Lhota;91;49.13717;17.812361
983;4;595519;Dolní Libochová;100;49.408323;16.18463
984;4;549088;Dolní Lochov;44;50.452684;15.286558
985;4;511951;Dolní Lomná;36;49.547805;18.706114
986;4;595527;Dolní Loučky;28;49.361025;16.358733
987;4;557684;Dolní Lukavice;66;49.602025;13.344277
988;4;598968;Dolní Lutyně;46;49.89874;18.428203
989;4;579165;Dolní Lánov;85;50.587041;15.664416
990;4;580163;Dolní Morava;94;50.122638;16.799575
991;4;597287;Dolní Moravice;29;49.97712;17.321706
992;4;568601;Dolní Město;37;49.627759;15.38234
993;4;560341;Dolní Nivy;80;50.243224;12.637123
994;4;562301;Dolní Novosedly;73;49.329203;14.196018
995;4;592145;Dolní Němčí;88;48.968374;17.585853
996;4;569259;Dolní Nětčice;74;49.476176;17.67504
997;4;579173;Dolní Olešnice;85;50.52399;15.712257
998;4;562432;Dolní Podluží;35;50.879954;14.59515
999;4;531260;Dolní Pohleď;51;49.743477;15.133571
1000;4;562441;Dolní Poustevna;35;50.982589;14.286964
1001;4;562467;Dolní Pěna;43;49.110566;15.022066
1002;4;569984;Dolní Přím;39;50.239671;15.708572
1003;4;574023;Dolní Radechová;60;50.438373;16.151321
1004;4;574911;Dolní Roveň;64;50.029314;15.967803
1005;4;595535;Dolní Rožínka;100;49.477046;16.210494
1006;4;538591;Dolní Rychnov;80;50.164737;12.645153
1007;4;535729;Dolní Slivno;55;50.308848;14.732818
1008;4;548448;Dolní Sokolovec;37;49.726595;15.715219
1009;4;570940;Dolní Stakory;55;50.437357;14.972566
1010;4;553379;Dolní Studénky;99;49.935079;16.971128
1011;4;552607;Dolní Tošanovice;36;49.68414;18.488494
1012;4;552984;Dolní Těšice;74;49.495365;17.806828
1013;4;545473;Dolní Třebonín;98;48.855502;14.409709
1014;4;590550;Dolní Vilémovice;87;49.153603;15.977203
1015;4;587061;Dolní Vilímeč;42;49.135941;15.520455
1016;4;584436;Dolní Věstonice;30;48.887249;16.64385
1017;4;531987;Dolní Zimoř;57;50.426687;14.501454
1018;4;567931;Dolní Zálezly;93;50.597401;14.043179
1019;4;513199;Dolní Újezd;74;49.545973;17.535506
1020;4;577995;Dolní Újezd;82;49.825655;16.254657
1021;4;580112;Dolní Čermná;94;49.979562;16.564812
1022;4;563994;Dolní Řasnice;52;50.945741;15.168794
1023;4;574929;Dolní Ředice;64;50.077848;15.923995
1024;4;554502;Dolní Žandov;31;50.018063;12.551079
1025;4;553051;Dolní Životice;62;49.897318;17.779741
1026;4;562602;Dolní Žďár;43;49.10119;14.988189
1027;4;589454;Doloplazy;72;49.350226;17.160017
1028;4;568392;Doloplazy;61;49.567185;17.411508
1029;4;553646;Dolánky nad Ohří;53;50.472932;14.162699
1030;4;590568;Domamil;87;49.083284;15.695585
1031;4;586145;Domanín;38;49.001683;17.284764
1032;4;562840;Domanín;43;48.971751;14.739778
1033;4;582964;Domašov;28;49.245362;16.343838
1034;4;545279;Domašov nad Bystřicí;61;49.742305;17.44534
1035;4;552313;Domašov u Šternberka;61;49.705796;17.337935
1036;4;563048;Domašín;32;50.420802;13.17229
1037;4;513211;Domaželice;74;49.427687;17.545784
1038;4;553425;Domažlice;34;49.440606;12.929798
1039;4;578517;Domoraz;48;49.25072;13.662029
1040;4;535745;Domousnice;55;50.39426;15.101684
1041;4;566152;Domoušice;54;50.234243;13.729596
1042;4;513181;Dománovice;49;50.11191;15.322586
1043;4;564885;Doubek;70;50.017681;14.737831
1044;4;530417;Doubice;35;50.888674;14.461728
1045;4;568864;Doubrava;46;49.858713;18.480224
1046;4;535664;Doubravice;97;48.935872;14.51073
1047;4;550981;Doubravice;81;49.352102;13.86195
1048;4;579181;Doubravice;85;50.405519;15.761966
1049;4;581542;Doubravice nad Svitavou;26;49.436662;16.629396
1050;4;571067;Doubravička;55;50.395173;14.776192
1051;4;595551;Doubravník;28;49.42414;16.352724
1052;4;585181;Doubravy;91;49.14245;17.66811
1053;4;533301;Doubravčice;49;50.022118;14.793142
1054;4;544400;Doudleby;97;48.893605;14.501492
1055;4;576301;Doudleby nad Orlicí;78;50.107452;16.261382
1056;4;500127;Doupovské Hradiště;45;50.233333;13.016667
1057;4;587079;Doupě;42;49.23689;15.43464
1058;4;507610;Doňov;43;49.213147;14.776126
1059;4;560219;Drachkov;81;49.242772;13.841616
1060;4;501751;Drahanovice;61;49.578572;17.077048
1061;4;589462;Drahany;72;49.43328;16.897409
1062;4;531146;Drahelčice;71;50.031903;14.203016
1063;4;599298;Drahenice;75;49.520931;13.958444
1064;4;540251;Drahkov;66;49.557252;13.472475
1065;4;540145;Drahlín;75;49.732299;13.968919
1066;4;564681;Drahobudice;49;49.937539;15.066317
1067;4;564770;Drahobuz;53;50.525195;14.320794
1068;4;551015;Drahonice;81;49.200834;14.074601
1069;4;595560;Drahonín;28;49.414096;16.276929
1070;4;553573;Drahotín;34;49.524245;12.75819
1071;4;535958;Drahotěšice;97;49.124409;14.546598
1072;4;529711;Drahouš;76;50.080223;13.475731
1073;4;563765;Drahov;86;49.175433;14.754194
1074;4;530379;Drahoňův Újezd;77;49.877195;13.725897
1075;4;532151;Drahňovice;24;49.822538;14.9017
1076;4;553581;Draženov;34;49.455815;12.872727
1077;4;578665;Dražeň;68;49.926948;13.287931
1078;4;552283;Dražice;86;49.429323;14.589982
1079;4;552291;Dražičky;86;49.3991;14.598748
1080;4;592994;Dražovice;90;49.194762;16.943392
1081;4;566683;Dražovice;48;49.224765;13.607034
1082;4;549371;Dražíč;97;49.305948;14.383847
1083;4;586153;Dražůvky;38;49.030552;17.018977
1084;4;540170;Drevníky;75;49.720235;14.274077
1085;4;563307;Drhovice;86;49.432885;14.558411
1086;4;549380;Drhovle;73;49.333784;14.040697
1087;4;540188;Drhovy;75;49.73914;14.232433
1088;4;554511;Drmoul;31;49.939076;12.665569
1089;4;512991;Drnek;47;50.195725;13.972482
1090;4;584444;Drnholec;30;48.85749;16.485856
1091;4;585190;Drnovice;91;49.178886;17.957313
1092;4;593001;Drnovice;90;49.276314;16.951482
1093;4;581551;Drnovice;26;49.469335;16.542261
1094;4;531341;Drobovice;51;49.88958;15.413475
1095;4;560243;Droužetice;81;49.289169;13.898043
1096;4;563056;Droužkovice;32;50.430877;13.429184
1097;4;531154;Drozdov;25;49.863225;13.840636
1098;4;570141;Drozdov;99;49.907758;16.787399
1099;4;537187;Drslavice;69;49.025412;13.920777
1100;4;592153;Drslavice;88;49.047057;17.600079
1101;4;568619;Druhanov;37;49.698832;15.410266
1102;4;560987;Drunče;43;49.296912;14.936485
1103;4;558834;Druztová;68;49.797508;13.448776
1104;4;532274;Družec;47;50.103066;14.045474
1105;4;593010;Drysice;90;49.334558;17.057761
1106;4;552275;Dráchov;86;49.226507;14.706644
1107;4;540153;Drásov;75;49.702165;14.117751
1108;4;582972;Drásov;28;49.331864;16.478008
1109;4;551023;Drážov;81;49.167402;13.740624
1110;4;563561;Držkov;40;50.687593;15.303281
1111;4;585203;Držková;91;49.319142;17.785529
1112;4;558419;Držovice;72;49.491123;17.134031
1113;4;550183;Dub;69;49.108322;14.012068
1114;4;501794;Dub nad Moravou;61;49.482497;17.277262
1115;4;572977;Dubany;64;49.99311;15.725048
1116;4;598381;Dubenec;75;49.695789;14.079283
1117;4;579190;Dubenec;85;50.377664;15.795156
1118;4;534927;Dubicko;99;49.828078;16.962713
1119;4;535788;Dubičné;97;48.981147;14.538772
1120;4;540218;Dublovice;75;49.671855;14.36094
1121;4;561541;Dubnice;96;50.726036;14.80882
1122;4;564508;Dubno;75;49.695938;14.051794
1123;4;544442;Dubné;97;48.976271;14.360388
1124;4;551546;Dubovice;65;49.432649;15.174613
1125;4;561533;Dubá;96;50.540413;14.540331
1126;4;567507;Dubí;84;50.681122;13.788939
1127;4;552071;Dubčany;61;49.649234;17.078859
1128;4;586161;Dubňany;38;48.916955;17.09004
1129;4;567515;Duchcov;84;50.603855;13.74631
1130;4;587087;Dudín;42;49.45106;15.397639
1131;4;590576;Dukovany;87;49.081289;16.192186
1132;4;562815;Dunajovice;43;49.035118;14.695259
1133;4;532843;Dunice;24;49.603205;15.152684
1134;4;587095;Dušejov;42;49.40877;15.432763
1135;4;564818;Dušníky;53;50.424613;14.190254
1136;4;504955;Dvakačovice;33;49.978964;15.894425
1137;4;506729;Dvorce;42;49.375416;15.490403
1138;4;597317;Dvorce;29;49.833321;17.547667
1139;4;537110;Dvory;59;50.211711;14.995528
1140;4;537144;Dvory;69;49.039483;13.946167
1141;4;509141;Dvory nad Lužnicí;43;48.852788;14.900532
1142;4;579203;Dvůr Králové nad Labem;85;50.431764;15.814109
1143;4;593991;Dyje;92;48.847159;16.116496
1144;4;587109;Dyjice;42;49.174679;15.493888
1145;4;593974;Dyjákovice;92;48.771912;16.30096
1146;4;593982;Dyjákovičky;92;48.782341;16.095621
1147;4;537128;Dymokury;59;50.245733;15.202624
1148;4;544451;Dynín;97;49.137273;14.631212
1149;4;589497;Dzbel;72;49.612914;16.850917
1150;4;549118;Dílce;44;50.467246;15.359418
1151;4;553557;Díly;34;49.446378;12.786425
1152;4;552208;Dírná;86;49.242932;14.844788
1153;4;544361;Dívčice;97;49.10871;14.309314
1154;4;551864;Dívčí Hrad;29;50.243764;17.634146
1155;4;529753;Dívčí Kopy;43;49.260344;15.045928
1156;4;558851;Dýšina;67;49.777446;13.491557
1157;4;590525;Dědice;87;49.029751;15.727762
1158;4;571300;Dědová;33;49.761143;15.986513
1159;4;568236;Děhylov;62;49.869372;18.163371
1160;4;532746;Děkanovice;24;49.618747;15.148584
1161;4;565181;Děkov;76;50.171272;13.554449
1162;4;538116;Děpoltovice;45;50.294683;12.813984
1163;4;572829;Dětenice;44;50.368137;15.170606
1164;4;592978;Dětkovice;90;49.272698;17.144227
1165;4;589420;Dětkovice;72;49.415374;17.082205
1166;4;598941;Dětmarovice;46;49.894097;18.460841
1167;4;546607;Dětřichov;52;50.892705;15.036682
1168;4;577961;Dětřichov;82;49.799999;16.532645
1169;4;597252;Dětřichov nad Bystřicí;29;49.834197;17.401773
1170;4;572683;Dětřichov u Moravské Třebové;82;49.787166;16.710552
1171;4;564729;Děčany;53;50.438681;13.908559
1172;4;562335;Děčín;35;50.772656;14.212861
1173;4;504301;Dřenice;33;49.98258;15.74546
1174;4;532282;Dřetovice;47;50.182766;14.210336
1175;4;589489;Dřevnovice;72;49.328102;17.143278
1176;4;513229;Dřevohostice;74;49.425947;17.592069
1177;4;538191;Dřevčice;70;50.167823;14.628295
1178;4;573337;Dřevěnice;44;50.452321;15.447198
1179;4;551040;Dřešín;81;49.161231;13.775692
1180;4;534773;Dřínov;57;50.273727;14.397583
1181;4;532291;Dřínov;47;50.275643;14.069827
1182;4;588431;Dřínov;50;49.292902;17.233397
1183;4;534781;Dřísy;70;50.256057;14.643626
1184;4;574953;Dříteč;64;50.105135;15.808821
1185;4;544426;Dříteň;97;49.14288;14.345978
1186;4;529869;Důl;65;49.452152;15.030116
1187;4;594008;Džbánice;92;49.001298;16.210941
1188;4;580210;Džbánov;94;49.916392;16.159557
1189;4;559792;Ejpovice;77;49.746181;13.514311
1190;4;560855;Erpužice;83;49.807058;13.036021
1191;4;564834;Evaň;53;50.384134;14.028968
1192;4;561754;Eš;65;49.434661;15.001329
1193;4;531162;Felbabka;25;49.813469;13.94196
1194;4;562637;Frahelž;43;49.1172;14.731943
1195;4;542644;Francova Lhota;89;49.201734;18.111759
1196;4;545899;Františkov nad Ploučnicí;35;50.725781;14.327014
1197;4;554529;Františkovy Lázně;31;50.120455;12.351815
1198;4;599344;Frenštát pod Radhoštěm;58;49.548335;18.21081
1199;4;578525;Frymburk;48;49.249649;13.707297
1200;4;545481;Frymburk;98;48.661027;14.165629
1201;4;598135;Fryčovice;36;49.666756;18.223242
1202;4;595578;Fryšava pod Žákovou horou;100;49.630451;16.044371
1203;4;585211;Fryšták;91;49.285206;17.68348
1204;4;598003;Frýdek-Místek;36;49.688056;18.353611
1205;4;564028;Frýdlant;52;50.921452;15.079859
1206;4;598143;Frýdlant nad Ostravicí;36;49.592788;18.359697
1207;4;563579;Frýdštejn;40;50.652313;15.158861
1208;4;599352;Fulnek;58;49.712371;17.903233
1209;4;568635;Golčův Jeníkov;37;49.816313;15.476915
1210;4;594016;Grešlové Mýto;92;48.980798;15.886173
1211;4;574325;Gruna;82;49.762915;16.742814
1212;4;599450;Grunta;49;49.97417;15.255046
1213;4;501841;Grygov;61;49.537864;17.310869
1214;4;569194;Grymov;74;49.481015;17.498034
1215;4;564036;Habartice;52;51.019089;15.065278
1216;4;560359;Habartov;80;50.183085;12.550615
1217;4;567957;Habrovany;93;50.598656;13.981785
1218;4;593028;Habrovany;90;49.232855;16.878304
1219;4;568651;Habry;37;49.756079;15.484908
1220;4;581569;Habrůvka;26;49.303524;16.723535
1221;4;569992;Habřina;39;50.325978;15.826947
1222;4;535575;Habří;97;48.948225;14.334855
1223;4;562696;Hadravova Rosička;43;49.250914;15.047427
1224;4;582999;Hajany;28;49.110845;16.554996
1225;4;551597;Hajany;81;49.446757;13.836039
1226;4;579211;Hajnice;85;50.475319;15.912478
1227;4;542679;Halenkov;89;49.317392;18.147506
1228;4;585220;Halenkovice;91;49.171029;17.471567
1229;4;585238;Haluzice;91;49.13787;17.897303
1230;4;562807;Halámky;43;48.853206;14.915126
1231;4;560863;Halže;83;49.831141;12.579453
1232;4;562386;Hamr;43;48.949471;14.913436
1233;4;544337;Hamr na Jezeře;96;50.702937;14.838289
1234;4;578240;Hamry;48;49.215416;13.160466
1235;4;571377;Hamry;33;49.739009;15.926458
1236;4;595586;Hamry nad Sázavou;100;49.566066;15.901725
1237;4;535532;Hanušovice;99;50.080502;16.936474
1238;4;577081;Harrachov;40;50.772136;15.431521
1239;4;572284;Hartinkov;82;49.679124;16.813971
1240;4;578037;Hartmanice;82;49.625261;16.372967
1241;4;536075;Hartmanice;97;49.20802;14.565135
1242;4;556181;Hartmanice;48;49.169581;13.454574
1243;4;590584;Hartvíkovice;87;49.171138;16.09035
1244;4;546291;Hatín;43;49.108715;14.911048
1245;4;579220;Havlovice;85;50.487564;16.029413
1246;4;568660;Havlíčkova Borová;37;49.635828;15.781609
1247;4;568414;Havlíčkův Brod;37;49.6079;15.580728
1248;4;594024;Havraníky;92;48.811468;16.008383
1249;4;567141;Havraň;56;50.450137;13.598862
1250;4;555088;Havířov;46;49.777778;18.422778
1251;4;554545;Hazlov;31;50.156468;12.272456
1252;4;549967;Hačky;72;49.622441;16.937647
1253;4;552178;Haňovice;61;49.681072;17.045087
1254;4;563625;Haškovcova Lhota;86;49.33257;14.466652
1255;4;568210;Hať;62;49.946429;18.239365
1256;4;564044;Hejnice;52;50.877255;15.181791
1257;4;580228;Hejnice;94;50.055912;16.399478
1258;4;541796;Hejná;48;49.289468;13.674723
1259;4;574031;Hejtmánkovice;60;50.599285;16.299535
1260;4;548049;Helvíkovice;94;50.09225;16.431011
1261;4;590592;Heraltice;87;49.23088;15.730565
1262;4;564915;Herink;70;49.96693;14.57497
1263;4;583014;Heroltice;28;49.311388;16.412816
1264;4;595594;Herálec;100;49.688955;15.994359
1265;4;568678;Herálec;37;49.530886;15.457117
1266;4;550213;Heršpice;90;49.11979;16.913572
1267;4;594032;Hevlín;92;48.752125;16.381304
1268;4;546305;Heřmaneč;43;49.129558;15.285374
1269;4;548596;Heřmanice;37;49.823959;15.547278
1270;4;574040;Heřmanice;60;50.379639;15.918629
1271;4;544353;Heřmanice;52;50.896958;15.006463
1272;4;568562;Heřmanice u Oder;58;49.713674;17.805375
1273;4;529702;Heřmaničky;24;49.605381;14.58253
1274;4;562483;Heřmanov;35;50.72656;14.291311
1275;4;595608;Heřmanov;100;49.379401;16.181255
1276;4;558869;Heřmanova Huť;68;49.706903;13.100743
1277;4;597325;Heřmanovice;29;50.193301;17.397836
1278;4;571385;Heřmanův Městec;33;49.947118;15.664984
1279;4;549398;Heřmaň;73;49.232554;14.135471
1280;4;598593;Heřmaň;97;48.911433;14.503667
1281;4;574058;Heřmánkovice;60;50.619936;16.323945
1282;4;568571;Heřmánky;58;49.706969;17.768345
1283;4;569666;Hladké Životice;58;49.682896;17.957405
1284;4;587125;Hladov;42;49.214676;15.611375
1285;4;560481;Hlasivo;86;49.498529;14.750357
1286;4;535851;Hlavatce;97;49.067383;14.263193
1287;4;552321;Hlavatce;86;49.295567;14.621238
1288;4;565989;Hlavenec;70;50.238358;14.701834
1289;4;574961;Hlavečník;64;50.075508;15.426579
1290;4;564052;Hlavice;52;50.632051;14.9255
1291;4;553093;Hlavnice;62;49.924388;17.727909
1292;4;556203;Hlavňovice;48;49.237946;13.395078
1293;4;566390;Hlince;68;49.948323;13.625088
1294;4;598607;Hlincová Hora;97;48.983697;14.564469
1295;4;551872;Hlinka;29;50.280008;17.672222
1296;4;564842;Hlinná;53;50.572442;14.106778
1297;4;571393;Hlinsko;33;49.762173;15.907606
1298;4;569267;Hlinsko;74;49.494544;17.579172
1299;4;584452;Hlohovec;30;48.774012;16.762292
1300;4;559806;Hlohovice;77;49.889566;13.6434
1301;4;553620;Hlohová;34;49.534139;13.074617
1302;4;566641;Hlohovčice;34;49.520849;13.113807
1303;4;571407;Hluboká;33;49.845619;16.071598
1304;4;544485;Hluboká nad Vltavou;97;49.052329;14.434283
1305;4;590614;Hluboké;87;49.22597;16.227521
1306;4;581577;Hluboké Dvory;28;49.38317;16.51423
1307;4;594041;Hluboké Mašůvky;92;48.923699;16.025551
1308;4;593036;Hlubočany;90;49.230437;17.000378
1309;4;568368;Hlubočec;62;49.840562;17.97037
1310;4;502146;Hlubočky;61;49.627581;17.402568
1311;4;540242;Hluboš;75;49.746306;14.020244
1312;4;564605;Hlubyně;75;49.55975;13.923282
1313;4;589501;Hluchov;72;49.541414;16.996674
1314;4;592170;Hluk;88;48.988126;17.52668
1315;4;536628;Hlupín;81;49.334782;13.806803
1316;4;507016;Hlučín;62;49.89794;18.192005
1317;4;570001;Hlušice;39;50.26465;15.403337
1318;4;552020;Hlušovice;61;49.638104;17.277426
1319;4;552330;Hlásnice;61;49.753369;17.294613
1320;4;531171;Hlásná Třebaň;25;49.922321;14.198716
1321;4;583022;Hlína;28;49.113649;16.426175
1322;4;531197;Hlízov;51;49.985051;15.295164
1323;4;594059;Hnanice;92;48.79853;15.986675
1324;4;542083;Hnačov;48;49.361919;13.481705
1325;4;502405;Hnojice;61;49.716322;17.224163
1326;4;598160;Hnojník;36;49.682264;18.541319
1327;4;580261;Hnátnice;94;50.020365;16.438614
1328;4;568694;Hněvkovice;37;49.683303;15.199652
1329;4;530221;Hněvnice;68;49.728606;13.103183
1330;4;502235;Hněvotín;61;49.572065;17.17957
1331;4;507105;Hněvošice;62;50.002984;18.008343
1332;4;570010;Hněvčeves;39;50.314915;15.716206
1333;4;513075;Hobšovice;47;50.270625;14.162241
1334;4;587141;Hodice;42;49.270124;15.480012
1335;4;564061;Hodkovice nad Mohelkou;52;50.66592;15.089954
1336;4;562904;Hodonice;86;49.268599;14.487389
1337;4;594067;Hodonice;92;48.83684;16.163371
1338;4;581593;Hodonín;26;49.501215;16.410307
1339;4;547794;Hodonín;33;49.836998;15.787119
1340;4;586021;Hodonín;38;48.848951;17.132439
1341;4;590622;Hodov;87;49.294021;15.983868
1342;4;599409;Hodslavice;58;49.538554;18.023704
1343;4;595624;Hodíškov;100;49.503532;16.038079
1344;4;593044;Hodějice;90;49.141515;16.913698
1345;4;598992;Hodětín;86;49.252245;14.548655
1346;4;547883;Hojanovice;65;49.597314;15.265553
1347;4;587150;Hojkov;42;49.389197;15.413712
1348;4;561096;Hojovice;65;49.328423;14.919797
1349;4;561584;Holany;96;50.618069;14.493064
1350;4;583031;Holasice;28;49.075884;16.607571
1351;4;507113;Holasovice;62;49.998425;17.808524
1352;4;566187;Holedeč;54;50.277523;13.56307
1353;4;577111;Holenice;79;50.520427;15.300534
1354;4;571440;Holetín;33;49.802197;15.926904
1355;4;588458;Holešov;50;49.333314;17.578341
1356;4;574988;Holice;64;50.06605;15.985966
1357;4;570028;Holohlavy;39;50.307981;15.860161
1358;4;573019;Holotín;64;49.945942;15.580304
1359;4;559814;Holoubkov;77;49.776077;13.692513
1360;4;566730;Holovousy;68;49.967969;13.614775
1361;4;572918;Holovousy;44;50.37533;15.577512
1362;4;550825;Holubice;90;49.177511;16.812151
1363;4;539228;Holubice;71;50.203164;14.292919
1364;4;545490;Holubov;98;48.890074;14.321094
1365;4;572900;Holín;44;50.451659;15.32079
1366;4;553654;Holýšov;66;49.59372;13.101339
1367;4;597341;Holčovice;29;50.156756;17.486041
1368;4;581615;Holštejn;26;49.406344;16.777687
1369;4;544493;Homole;97;48.938975;14.429479
1370;4;567973;Homole u Panny;93;50.629355;14.186485
1371;4;571458;Honbice;33;49.933504;15.893047
1372;4;540668;Honezovice;66;49.638317;13.062602
1373;4;542342;Honětice;50;49.203719;17.253122
1374;4;567167;Hora Svaté Kateřiny;56;50.606406;13.436821
1375;4;566276;Hora Svatého Václava;34;49.518991;12.739888
1376;4;563064;Hora Svatého Šebestiána;32;50.510321;13.251436
1377;4;556254;Horažďovice;48;49.320782;13.701031
1378;4;571466;Horka;33;49.887264;15.916824
1379;4;531430;Horka I;51;49.982747;15.439998
1380;4;534056;Horka II;51;49.732137;15.133795
1381;4;502545;Horka nad Moravou;61;49.640099;17.210738
1382;4;574201;Horka u Staré Paky;79;50.526128;15.575817
1383;4;531359;Horky;51;49.868816;15.439849
1384;4;578053;Horky;82;49.920756;16.243423
1385;4;535818;Horky nad Jizerou;55;50.327127;14.856145
1386;4;590665;Hornice;87;48.995236;15.68037
1387;4;536369;Hornosín;81;49.482842;13.839805
1388;4;597350;Horní Benešov;29;49.966822;17.602679
1389;4;532312;Horní Bezděkov;47;50.082332;14.067559
1390;4;542687;Horní Bečva;89;49.432148;18.288613
1391;4;564851;Horní Beřkovice;53;50.358765;14.346565
1392;4;555169;Horní Blatná;45;50.390496;12.771021
1393;4;598178;Horní Bludovice;46;49.749633;18.436812
1394;4;584461;Horní Bojanovice;30;48.949729;16.800148
1395;4;571474;Horní Bradlo;33;49.802381;15.74434
1396;4;577120;Horní Branná;79;50.608305;15.571562
1397;4;579238;Horní Brusnice;85;50.473108;15.681125
1398;4;535834;Horní Bukovina;55;50.543218;14.926219
1399;4;558877;Horní Bělá;68;49.889076;13.264169
1400;4;594075;Horní Břečkov;92;48.89;15.898459
1401;4;558885;Horní Bříza;68;49.840223;13.355638
1402;4;547913;Horní Cerekev;65;49.320317;15.327716
1403;4;512192;Horní Domaslavice;36;49.695681;18.459297
1404;4;587168;Horní Dubenky;42;49.259636;15.317025
1405;4;594083;Horní Dubňany;92;49.063397;16.201285
1406;4;594091;Horní Dunajovice;92;48.950282;16.161528
1407;4;545503;Horní Dvořiště;98;48.603862;14.405716
1408;4;545929;Horní Habartice;35;50.762146;14.340719
1409;4;580295;Horní Heřmanice;94;49.961019;16.711249
1410;4;590631;Horní Heřmanice;87;49.329397;15.92041
1411;4;574996;Horní Jelení;64;50.049047;16.084029
1412;4;567175;Horní Jiřetín;56;50.573188;13.547271
1413;4;579254;Horní Kalná;85;50.568771;15.613099
1414;4;553662;Horní Kamenice;66;49.5697;13.101097
1415;4;536105;Horní Kněžeklady;97;49.193806;14.481408
1416;4;594105;Horní Kounice;92;49.026032;16.152271
1417;4;541290;Horní Kozolupy;83;49.837623;12.941698
1418;4;568708;Horní Krupá;37;49.672043;15.58853
1419;4;533327;Horní Kruty;49;49.919508;14.959767
1420;4;588474;Horní Lapač;50;49.300927;17.617431
1421;4;569500;Horní Lhota;63;49.853035;18.068425
1422;4;585246;Horní Lhota;91;49.154311;17.804449
1423;4;561592;Horní Libchava;96;50.712915;14.493443
1424;4;595659;Horní Libochová;100;49.407666;16.148905
1425;4;542725;Horní Lideč;89;49.181208;18.061002
1426;4;569798;Horní Loděnice;61;49.771018;17.377219
1427;4;511986;Horní Lomná;36;49.527832;18.637315
1428;4;595667;Horní Loučky;28;49.366839;16.34142
1429;4;539821;Horní Lukavice;66;49.612421;13.327018
1430;4;579262;Horní Maršov;85;50.658601;15.819853
1431;4;598658;Horní Meziříčko;43;49.156641;15.244524
1432;4;513491;Horní Moštěnice;74;49.412133;17.458817
1433;4;587206;Horní Myslová;42;49.16547;15.422578
1434;4;597368;Horní Město;29;49.908459;17.211169
1435;4;562785;Horní Němčice;43;49.157856;15.279695
1436;4;592188;Horní Němčí;88;48.933178;17.624164
1437;4;569275;Horní Nětčice;74;49.470147;17.684417
1438;4;579271;Horní Olešnice;85;50.532706;15.677489
1439;4;548243;Horní Paseka;37;49.629712;15.293222
1440;4;545511;Horní Planá;98;48.76745;14.032573
1441;4;562505;Horní Podluží;35;50.881451;14.545735
1442;4;561606;Horní Police;96;50.70419;14.404102
1443;4;534790;Horní Počaply;57;50.424478;14.39002
1444;4;581631;Horní Poříčí;26;49.587626;16.477369
1445;4;536881;Horní Poříčí;81;49.286049;13.782847
1446;4;546364;Horní Pěna;43;49.104477;15.04231
1447;4;574066;Horní Radechová;60;50.467388;16.144857
1448;4;546381;Horní Radouň;43;49.257141;15.005749
1449;4;595675;Horní Radslavice;100;49.338282;15.902285
1450;4;595683;Horní Rožínka;100;49.500036;16.192929
1451;4;551589;Horní Rápotice;65;49.575381;15.320522
1452;4;561061;Horní Skrýchov;43;49.172841;15.02839
1453;4;562319;Horní Slatina;43;49.096722;15.559471
1454;4;560367;Horní Slavkov;80;50.138745;12.807658
1455;4;599531;Horní Slivno;55;50.304098;14.704959
1456;4;550612;Horní Smrčné;87;49.328635;15.756121
1457;4;513695;Horní Smržov;26;49.618285;16.577019
1458;4;544515;Horní Stropnice;97;48.761317;14.735014
1459;4;535770;Horní Studénky;99;49.952659;16.811896
1460;4;552739;Horní Suchá;46;49.797784;18.481931
1461;4;552631;Horní Tošanovice;36;49.692354;18.505355
1462;4;552968;Horní Těšice;74;49.495658;17.786005
1463;4;580333;Horní Třešňovec;94;49.939248;16.602593
1464;4;547930;Horní Ves;65;49.293463;15.307476
1465;4;590657;Horní Vilémovice;87;49.291604;15.880829
1466;4;550205;Horní Vltavice;69;48.957137;13.758706
1467;4;584479;Horní Věstonice;30;48.87458;16.625554
1468;4;572365;Horní Újezd;82;49.803513;16.232987
1469;4;590649;Horní Újezd;87;49.142838;15.842168
1470;4;569542;Horní Újezd;74;49.448288;17.727202
1471;4;580279;Horní Čermná;94;49.970555;16.607776
1472;4;564079;Horní Řasnice;52;50.965517;15.201609
1473;4;575011;Horní Ředice;64;50.076552;15.958847
1474;4;546763;Horní Řepčice;53;50.556808;14.252403
1475;4;589519;Horní Štěpánov;72;49.549029;16.790811
1476;4;551805;Horní Životice;29;49.968887;17.640849
1477;4;539236;Horoměřice;71;50.131805;14.338859
1478;4;561525;Horosedly;73;49.512877;14.054041
1479;4;538221;Horoušany;70;50.10647;14.740645
1480;4;542091;Horská Kvilda;48;49.057712;13.557988
1481;4;531481;Horušice;51;49.996537;15.429002
1482;4;551651;Hory;45;50.213857;12.789959
1483;4;564257;Horčápsko;75;49.584484;13.984495
1484;4;557722;Horšice;66;49.531568;13.386232
1485;4;553671;Horšovský Týn;34;49.52976;12.944091
1486;4;551104;Hoslovice;81;49.191273;13.763092
1487;4;532339;Hospozín;47;50.306958;14.171845
1488;4;546402;Hospříz;43;49.128624;15.085541
1489;4;568511;Hostašovice;58;49.534258;17.997328
1490;4;594121;Hostim;92;49.018635;15.894901
1491;4;579297;Hostinné;85;50.540707;15.72343
1492;4;539244;Hostivice;71;50.081655;14.258633
1493;4;585254;Hostišová;91;49.253686;17.591059
1494;4;567531;Hostomice;84;50.587789;13.80813
1495;4;531201;Hostomice;25;49.825343;14.045661
1496;4;532347;Hostouň;47;50.114467;14.201349
1497;4;553689;Hostouň;34;49.559826;12.771511
1498;4;534064;Hostovlice;51;49.860306;15.466354
1499;4;535524;Hosty;97;49.26037;14.393281
1500;4;531499;Hostín;57;50.340494;14.588975
1501;4;531928;Hostín u Vojkovic;57;50.29715;14.397047
1502;4;592196;Hostějov;88;49.040187;17.257162
1503;4;583057;Hostěnice;28;49.236565;16.776564
1504;4;594113;Hostěradice;92;48.950092;16.259316
1505;4;593052;Hostěrádky-Rešov;90;49.117675;16.784311
1506;4;587192;Hostětice;42;49.191717;15.414073
1507;4;550736;Hostětín;88;49.049915;17.879408
1508;4;544523;Hosín;97;49.037376;14.475936
1509;4;586170;Hovorany;38;48.95495;16.993457
1510;4;538230;Hovorčovice;70;50.178735;14.517962
1511;4;542768;Hovězí;89;49.303638;18.06064
1512;4;534854;Hořany;59;50.097672;14.945862
1513;4;547531;Hořenice;60;50.369221;15.910916
1514;4;547948;Hořepník;65;49.512818;15.105999
1515;4;541729;Hořesedly;76;50.162379;13.602735
1516;4;532321;Hořešovice;47;50.271671;13.966878
1517;4;535150;Hořešovičky;47;50.27497;13.955862
1518;4;572926;Hořice;44;50.366137;15.631918
1519;4;547956;Hořice;65;49.599319;15.18544
1520;4;545520;Hořice na Šumavě;98;48.765999;14.178423
1521;4;570044;Hořiněves;39;50.309584;15.767396
1522;4;574074;Hořičky;60;50.444796;15.993616
1523;4;531189;Hořovice;25;49.836061;13.902739
1524;4;541737;Hořovičky;76;50.155711;13.53148
1525;4;537152;Hořátev;59;50.149727;15.03989
1526;4;534803;Hořín;57;50.344891;14.464262
1527;4;535885;Hoštejn;99;49.874405;16.77482
1528;4;551121;Hoštice;81;49.194303;13.909488
1529;4;588482;Hoštice;50;49.208558;17.233794
1530;4;593061;Hoštice-Heroltice;90;49.287184;17.066549
1531;4;564877;Hoštka;53;50.488667;14.335094
1532;4;571482;Hošťalovice;33;49.93485;15.575985
1533;4;560898;Hošťka;83;49.696314;12.597506
1534;4;597392;Hošťálkovy;29;50.111605;17.599585
1535;4;542750;Hošťálková;89;49.354672;17.869459
1536;4;536091;Hrabišín;99;49.914067;17.036407
1537;4;553221;Hrabová;99;49.845467;16.953896
1538;4;507261;Hrabyně;62;49.882476;18.054876
1539;4;594130;Hrabětice;92;48.797685;16.393419
1540;4;553387;Hraběšice;99;49.976646;17.079576
1541;4;531413;Hraběšín;51;49.852578;15.33187
1542;4;513636;Hrabůvka;74;49.578506;17.691286
1543;4;550221;Hracholusky;69;49.058881;14.08855
1544;4;565202;Hracholusky;76;50.003174;13.773756
1545;4;562831;Hrachoviště;43;48.929439;14.771116
1546;4;535460;Hradce;97;48.933992;14.359635
1547;4;568724;Hradec;37;49.707285;15.295508
1548;4;557731;Hradec;66;49.635158;13.121421
1549;4;569810;Hradec Králové;39;50.209167;15.831944
1550;4;507270;Hradec nad Moravicí;62;49.871005;17.875866
1551;4;572691;Hradec nad Svitavou;82;49.711459;16.480627
1552;4;553301;Hradec-Nová Ves;41;50.282579;17.281859
1553;4;532355;Hradečno;47;50.188416;13.991335
1554;4;556319;Hradešice;48;49.323196;13.596471
1555;4;564800;Hradešín;49;50.038913;14.756732
1556;4;537179;Hradištko;59;50.165555;14.935125
1557;4;539252;Hradištko;71;49.868356;14.409404
1558;4;566179;Hradiště;34;49.464874;13.051762
1559;4;541001;Hradiště;77;49.963107;13.717695
1560;4;532932;Hradiště;24;49.684235;14.848747
1561;4;555177;Hradiště;45;50.174958;13.046609
1562;4;557749;Hradiště;66;49.439418;13.756129
1563;4;537161;Hradčany;59;50.158038;15.269932
1564;4;583065;Hradčany;28;49.327895;16.442189
1565;4;513733;Hradčany;74;49.452619;17.571656
1566;4;589527;Hradčany-Kobeřice;72;49.364089;17.129151
1567;4;592200;Hradčovice;88;49.049774;17.582096
1568;4;544540;Hranice;97;48.838487;14.868294
1569;4;554553;Hranice;31;50.304715;12.175859
1570;4;513750;Hranice;74;49.547964;17.734723
1571;4;546976;Hraničné Petrovice;61;49.740857;17.40498
1572;4;549410;Hrazany;73;49.522915;14.334914
1573;4;589535;Hrdibořice;72;49.478488;17.220443
1574;4;535869;Hrdlořezy;55;50.451457;14.875488
1575;4;532363;Hrdlív;47;50.199335;14.072561
1576;4;544558;Hrdějovice;97;49.019009;14.478583
1577;4;549428;Hrejkovice;73;49.474449;14.290844
1578;4;567558;Hrob;84;50.659283;13.726865
1579;4;564893;Hrobce;53;50.462547;14.230889
1580;4;575046;Hrobice;64;50.103471;15.788843
1581;4;585262;Hrobice;91;49.277394;17.788235
1582;4;567566;Hrobčice;84;50.517432;13.7857
1583;4;571491;Hrochův Týnec;33;49.959505;15.910603
1584;4;558915;Hromnice;68;49.849167;13.441519
1585;4;574082;Hronov;60;50.479717;16.182393
1586;4;590673;Hrotovice;87;49.10774;16.060686
1587;4;571504;Hroubovice;33;49.882572;15.990778
1588;4;550639;Hroznatín;87;49.297782;15.908291
1589;4;586188;Hroznová Lhota;38;48.907851;17.41697
1590;4;555185;Hroznětín;45;50.309509;12.871888
1591;4;577146;Hrubá Skála;79;50.541095;15.203043
1592;4;586196;Hrubá Vrbka;38;48.871886;17.477005
1593;4;599638;Hrubý Jeseník;59;50.251205;15.094124
1594;4;589543;Hrubčice;72;49.450028;17.193117
1595;4;538248;Hrusice;70;49.909917;14.738117
1596;4;590681;Hrutov;42;49.255493;15.680216
1597;4;543543;Hruška;72;49.358795;17.226685
1598;4;593079;Hrušky;90;49.129224;16.833488
1599;4;584487;Hrušky;30;48.792744;16.974037
1600;4;565733;Hrušov;55;50.344936;14.846459
1601;4;563072;Hrušovany;32;50.387348;13.498448
1602;4;594156;Hrušovany nad Jevišovkou;92;48.829942;16.402703
1603;4;583081;Hrušovany u Brna;28;49.03866;16.594292
1604;4;580341;Hrušová;94;49.913546;16.197784
1605;4;570052;Hrádek;39;50.22347;15.667118
1606;4;559822;Hrádek;77;49.710015;13.654153
1607;4;512176;Hrádek;36;49.616585;18.737235
1608;4;594148;Hrádek;92;48.772871;16.268185
1609;4;556301;Hrádek;48;49.261373;13.498525
1610;4;547972;Hrádek;94;49.968242;16.338361
1611;4;564095;Hrádek nad Nisou;52;50.852853;14.844662
1612;4;598232;Hrčava;36;49.51999;18.833148
1613;4;587222;Hubenov;42;49.392145;15.469051
1614;4;531227;Hudlice;25;49.96105;13.970698
1615;4;513580;Hudčice;75;49.531772;13.922549
1616;4;598691;Hukvaldy;36;49.623796;18.221922
1617;4;529737;Hulice;24;49.709662;15.087637
1618;4;588491;Hulín;50;49.3169;17.463759
1619;4;570087;Humburky;39;50.226074;15.511601
1620;4;547999;Humpolec;65;49.541578;15.359357
1621;4;562521;Huntířov;35;50.789511;14.303536
1622;4;530646;Hurtova Lhota;37;49.596413;15.508849
1623;4;538256;Husinec;70;50.173818;14.375154
1624;4;550230;Husinec;69;49.055048;13.986986
1625;4;542784;Huslenky;89;49.303166;18.090384
1626;4;584495;Hustopeče;30;48.945929;16.738559
1627;4;513768;Hustopeče nad Bečvou;74;49.530529;17.869967
1628;4;599522;Husí Lhota;55;50.435606;15.004802
1629;4;542814;Hutisko-Solanec;89;49.430956;18.213949
1630;4;597414;Huzová;61;49.819975;17.298006
1631;4;592218;Huštěnovice;88;49.108179;17.464476
1632;4;589560;Hvozd;72;49.636223;16.910114
1633;4;558931;Hvozd;68;49.939836;13.263183
1634;4;565334;Hvozd;76;50.051593;13.698471
1635;4;531235;Hvozdec;25;49.807135;13.880355
1636;4;583090;Hvozdec;28;49.246936;16.425206
1637;4;535613;Hvozdec;97;48.992391;14.627319
1638;4;573621;Hvozdnice;39;50.19132;15.711314
1639;4;539261;Hvozdnice;71;49.872305;14.371247
1640;4;585289;Hvozdná;91;49.248482;17.751647
1641;4;566331;Hvožďany;34;49.505682;12.771317
1642;4;540315;Hvožďany;75;49.528339;13.80515
1643;4;593087;Hvězdlice;90;49.193231;17.083743
1644;4;529745;Hvězdonice;24;49.872886;14.777331
1645;4;590690;Hvězdoňovice;87;49.219957;15.762234
1646;4;550281;Hybrálec;42;49.427837;15.559375
1647;4;574163;Hynčice;60;50.623764;16.285395
1648;4;536113;Hynčina;99;49.848532;16.793246
1649;4;567523;Háj u Duchcova;84;50.630905;13.712681
1650;4;506753;Háj ve Slezsku;62;49.899923;18.093084
1651;4;598402;Háje;75;49.672715;14.047394
1652;4;577073;Háje nad Jizerou;79;50.611929;15.42315
1653;4;561690;Hájek;81;49.111171;14.061172
1654;4;538159;Hájek;45;50.283248;12.91978
1655;4;531243;Hýskov;25;49.990809;14.050612
1656;4;586200;Hýsly;38;49.023303;17.179831
1657;4;532371;Hřebeč;47;50.136032;14.164537
1658;4;541761;Hřebečníky;76;49.984629;13.75329
1659;4;531219;Hředle;25;49.903882;13.920662
1660;4;541770;Hředle;76;50.188092;13.749492
1661;4;562513;Hřensko;35;50.874482;14.242621
1662;4;548642;Hřibiny-Ledská;78;50.148081;16.173969
1663;4;579301;Hřibojedy;85;50.392106;15.83481
1664;4;540285;Hřiměždice;75;49.686932;14.274958
1665;4;566217;Hřivice;54;50.288201;13.730321
1666;4;585271;Hřivínův Újezd;91;49.124229;17.691981
1667;4;546445;Hříšice;43;49.103383;15.495449
1668;4;566195;Hříškov;54;50.291421;13.864336
1669;4;559849;Hůrky;77;49.74597;13.683152
1670;4;535753;Hůry;97;49.006564;14.541094
1671;4;593117;Ivanovice na Hané;90;49.305434;17.093451
1672;4;583120;Ivančice;28;49.101478;16.377529
1673;4;589578;Ivaň;72;49.424607;17.251373
1674;4;584517;Ivaň;28;48.929741;16.57574
1675;4;535966;Jabkenice;55;50.324128;15.014857
1676;4;577162;Jablonec nad Jizerou;79;50.703519;15.429695
1677;4;563510;Jablonec nad Nisou;40;50.727778;15.17
1678;4;540374;Jablonná;75;49.661124;14.138489
1679;4;580376;Jablonné nad Orlicí;94;50.029661;16.600655
1680;4;561631;Jablonné v Podještědí;52;50.765345;14.760632
1681;4;581666;Jabloňany;26;49.465378;16.607162
1682;4;595730;Jabloňov;100;49.324053;16.089684
1683;4;598259;Jablunkov;36;49.576691;18.764612
1684;4;542865;Jablůnka;89;49.383547;17.950228
1685;4;548782;Jahodov;78;50.150297;16.333501
1686;4;507377;Jakartovice;62;49.915098;17.684054
1687;4;590746;Jakubov u Moravských Budějovic;87;49.08106;15.761429
1688;4;553344;Jakubovice;99;49.994326;16.82883
1689;4;554065;Jakubčovice nad Odrou;58;49.695038;17.787713
1690;4;592226;Jalubí;88;49.116268;17.427885
1691;4;587249;Jamné;42;49.431179;15.723875
1692;4;580392;Jamné nad Orlicí;94;50.039612;16.632962
1693;4;594181;Jamolice;92;49.072371;16.253691
1694;4;561461;Jankov;65;49.415149;15.386247
1695;4;529842;Jankov;24;49.653006;14.730788
1696;4;544612;Jankov;97;48.966522;14.297895
1697;4;588555;Jankovice;50;49.356148;17.621629
1698;4;575101;Jankovice;64;50.007686;15.529218
1699;4;592234;Jankovice;88;49.154129;17.388487
1700;4;553212;Janoušov;99;50.013132;16.845164
1701;4;576328;Janov;78;50.332341;16.251856
1702;4;597431;Janov;29;50.244856;17.481261
1703;4;578134;Janov;82;49.840803;16.38528
1704;4;565270;Janov;76;50.210496;13.639881
1705;4;544680;Janov;35;50.860276;14.26538
1706;4;563595;Janov nad Nisou;40;50.772096;15.169244
1707;4;507423;Janovice;36;49.62139;18.406049
1708;4;556394;Janovice nad Úhlavou;48;49.345254;13.218164
1709;4;561657;Janovice v Podještědí;52;50.762936;14.824343
1710;4;570346;Janová;89;49.312038;18.020064
1711;4;530395;Janská;35;50.804581;14.363559
1712;4;579351;Janské Lázně;85;50.631131;15.781909
1713;4;546658;Janův Důl;52;50.704616;14.940405
1714;4;578142;Janůvky;82;49.671578;16.592108
1715;4;542903;Jarcová;89;49.444524;17.965887
1716;4;588563;Jarohněvice;50;49.267086;17.377581
1717;4;574121;Jaroměř;60;50.356235;15.921447
1718;4;578151;Jaroměřice;82;49.625585;16.751888
1719;4;590754;Jaroměřice nad Rokytnou;87;49.094127;15.893318
1720;4;575119;Jaroslav;64;50.012277;16.077941
1721;4;594199;Jaroslavice;92;48.756609;16.233506
1722;4;578541;Jarov;66;49.521183;13.507629
1723;4;558982;Jarov;68;49.87256;13.474338
1724;4;578169;Jarošov;82;49.824852;16.163417
1725;4;546500;Jarošov nad Nežárkou;43;49.189956;15.067357
1726;4;532401;Jarpice;47;50.321687;14.085305
1727;4;590762;Jasenice;87;49.258177;16.163614
1728;4;585301;Jasenná;91;49.25339;17.894201
1729;4;574139;Jasenná;60;50.318319;15.991055
1730;4;541869;Javor;48;49.325182;13.247178
1731;4;595748;Javorek;100;49.650217;16.173808
1732;4;576336;Javornice;78;50.171398;16.349338
1733;4;529851;Javorník;24;49.686559;15.026578
1734;4;536148;Javorník;41;50.390786;17.002799
1735;4;572713;Javorník;82;49.782743;16.427427
1736;4;580406;Javorník;94;49.889503;16.156069
1737;4;586218;Javorník;38;48.862081;17.533389
1738;4;583154;Javůrek;28;49.255561;16.362198
1739;4;562963;Jedlany;86;49.494643;14.716473
1740;4;578185;Jedlová;82;49.661037;16.306124
1741;4;568783;Jedlá;37;49.738176;15.234391
1742;4;536288;Jedlí;99;49.931235;16.794789
1743;4;532410;Jedomělice;47;50.233038;13.972379
1744;4;575127;Jedousov;64;49.9954;15.610253
1745;4;581682;Jedovnice;26;49.344555;16.755972
1746;4;580414;Jehnědí;94;49.971043;16.309962
1747;4;590789;Jemnice;87;49.019037;15.569945
1748;4;532428;Jemníky;47;50.207622;14.119045
1749;4;539317;Jeneč;71;50.087381;14.214887
1750;4;537926;Jenišov;45;50.226652;12.800012
1751;4;571563;Jenišovice;33;49.929584;16.031074
1752;4;563609;Jenišovice;40;50.627753;15.136629
1753;4;567582;Jeníkov;84;50.628685;13.749009
1754;4;547816;Jeníkov;33;49.742531;15.957392
1755;4;570133;Jeníkovice;39;50.22822;16.002707
1756;4;575135;Jeníkovice;64;49.981542;15.660575
1757;4;505528;Jenčice;53;50.483024;14.004469
1758;4;538264;Jenštejn;70;50.152728;14.611877
1759;4;587265;Jersín;42;49.421302;15.830695
1760;4;589586;Jesenec;72;49.608433;16.862116
1761;4;541834;Jesenice;76;50.097128;13.469557
1762;4;539325;Jesenice;71;49.968217;14.51356
1763;4;540391;Jesenice;75;49.607821;14.478169
1764;4;577171;Jesenný;79;50.660547;15.33851
1765;4;536385;Jeseník;41;50.22938;17.204715
1766;4;599468;Jeseník nad Odrou;58;49.611936;17.90529
1767;4;585319;Jestřabí;91;49.068032;17.955873
1768;4;533360;Jestřabí Lhota;49;50.089891;15.261775
1769;4;577189;Jestřabí v Krkonoších;79;50.680567;15.49183
1770;4;561665;Jestřebí;96;50.608662;14.584647
1771;4;574147;Jestřebí;60;50.36212;16.182141
1772;4;536393;Jestřebí;99;49.852121;16.868682
1773;4;549479;Jetětice;73;49.386031;14.292638
1774;4;574155;Jetřichov;60;50.615004;16.266754
1775;4;562556;Jetřichovice;35;50.852463;14.394024
1776;4;533378;Jevany;70;49.970636;14.81054
1777;4;531871;Jeviněves;57;50.345188;14.338187
1778;4;594202;Jevišovice;92;48.987407;15.989931
1779;4;584525;Jevišovka;30;48.828622;16.466152
1780;4;578193;Jevíčko;82;49.632219;16.711294
1781;4;575143;Jezbořice;64;49.98062;15.694734
1782;4;547191;Jezdkovice;62;49.923029;17.774858
1783;4;587273;Jezdovice;42;49.323155;15.48418
1784;4;556998;Jezernice;74;49.547776;17.624931
1785;4;594211;Jezeřany-Maršovice;92;49.028844;16.437331
1786;4;572993;Jeřice;44;50.3446;15.680853
1787;4;568805;Jeřišno;37;49.792402;15.641711
1788;4;530484;Jeřmanice;52;50.699623;15.093926
1789;4;532134;Ješetice;24;49.581232;14.610165
1790;4;587281;Ježená;42;49.416347;15.465585
1791;4;593125;Ježkovice;90;49.297994;16.892548
1792;4;586226;Ježov;38;49.026991;17.210012
1793;4;548073;Ježov;65;49.613084;15.233758
1794;4;541753;Ježovy;48;49.491159;13.228435
1795;4;562084;Jickovice;73;49.450713;14.21591
1796;4;586846;Jihlava;42;49.400278;15.590556
1797;4;587290;Jihlávka;42;49.261181;15.292496
1798;4;562769;Jilem;43;49.176727;15.26884
1799;4;548413;Jilem;37;49.713424;15.583413
1800;4;577197;Jilemnice;79;50.608945;15.506628
1801;4;546011;Jimlín;54;50.317676;13.744871
1802;4;595772;Jimramov;100;49.637223;16.22636
1803;4;583171;Jinačovice;28;49.267832;16.529506
1804;4;540404;Jince;75;49.786325;13.978728
1805;4;513873;Jindřichov;74;49.644594;17.748274
1806;4;536521;Jindřichov;99;50.09581;16.984966
1807;4;597449;Jindřichov;29;50.251838;17.519098
1808;4;587303;Jindřichovice;42;49.137654;15.638609
1809;4;560413;Jindřichovice;80;50.282766;12.602389
1810;4;564133;Jindřichovice pod Smrkem;52;50.960868;15.249653
1811;4;545881;Jindřichův Hradec;43;49.14411;15.003025
1812;4;549151;Jinolice;44;50.478781;15.329803
1813;4;539350;Jinočany;71;50.032833;14.268749
1814;4;590797;Jinošov;87;49.231414;16.193469
1815;4;551163;Jinín;81;49.227862;13.982577
1816;4;550591;Jiratice;87;48.983124;15.612772
1817;4;563099;Jirkov;32;50.499891;13.447786
1818;4;538272;Jirny;70;50.115846;14.699302
1819;4;552534;Jistebnice;86;49.485605;14.527636
1820;4;599506;Jistebník;58;49.753985;18.130672
1821;4;546216;Jitkov;37;49.66227;15.72734
1822;4;531308;Jivina;25;49.79354;13.8377
1823;4;535974;Jivina;55;50.554179;14.947252
1824;4;535761;Jivno;97;48.995592;14.569231
1825;4;537268;Jizbice;59;50.257743;14.993932
1826;4;566039;Jizerní Vtelno;55;50.369459;14.853273
1827;4;572659;Jičín;44;50.437045;15.351653
1828;4;573001;Jičíněves;44;50.37313;15.337371
1829;4;546585;Jiřetín pod Bukovou;40;50.755741;15.263029
1830;4;562572;Jiřetín pod Jedlovou;35;50.874518;14.575194
1831;4;548081;Jiřice;65;49.553275;15.318375
1832;4;599581;Jiřice;59;50.252496;14.836931
1833;4;594229;Jiřice u Miroslavi;92;48.920847;16.391948
1834;4;550841;Jiřice u Moravských Budějovic;92;48.993918;15.925393
1835;4;597457;Jiříkov;29;49.85394;17.277596
1836;4;562581;Jiříkov;35;50.995209;14.56922
1837;4;583189;Jiříkovice;28;49.16674;16.758004
1838;4;586234;Josefov;38;48.839499;17.010035
1839;4;511587;Josefov;80;50.211634;12.579509
1840;4;563633;Josefův Důl;40;50.781969;15.231574
1841;4;529613;Josefův Důl;55;50.453469;14.893764
1842;4;555215;Jáchymov;45;50.358572;12.934739
1843;4;595756;Jámy;100;49.530361;16.006162
1844;4;537250;Jíkev;59;50.264425;15.060096
1845;4;544639;Jílovice;97;48.889557;14.726804
1846;4;576352;Jílovice;39;50.250662;16.012757
1847;4;539341;Jíloviště;71;49.927601;14.342798
1848;4;562564;Jílové;35;50.760901;14.103946
1849;4;563617;Jílové u Držkova;40;50.670917;15.29537
1850;4;539333;Jílové u Prahy;71;49.895521;14.493388
1851;4;579378;Jívka;85;50.535033;16.109098
1852;4;503142;Jívová;61;49.709179;17.39461
1853;4;595802;Jívoví;100;49.405408;16.090768
1854;4;577201;Kacanovy;79;50.550726;15.145369
1855;4;558991;Kaceřov;68;49.870705;13.512725
1856;4;560421;Kaceřov;80;50.149046;12.504365
1857;4;549312;Kacákova Lhota;44;50.409578;15.419307
1858;4;563102;Kadaň;32;50.376086;13.271397
1859;4;531774;Kadlín;57;50.399534;14.699825
1860;4;595811;Kadolec;100;49.37474;16.141761
1861;4;594237;Kadov;92;48.982794;16.287359
1862;4;595829;Kadov;100;49.632604;16.079259
1863;4;551180;Kadov;81;49.402817;13.77481
1864;4;579017;Kakejcov;77;49.667024;13.624227
1865;4;563111;Kalek;32;50.577829;13.322056
1866;4;536946;Kalenice;81;49.271642;13.716722
1867;4;587320;Kalhov;42;49.481079;15.441461
1868;4;565440;Kalivody;76;50.20851;13.841937
1869;4;548090;Kaliště;65;49.592655;15.304099
1870;4;587338;Kaliště;42;49.24131;15.301351
1871;4;538281;Kaliště;70;49.882726;14.774566
1872;4;595837;Kaly;28;49.379355;16.351627
1873;4;531031;Kamberk;24;49.597201;14.840354
1874;4;566811;Kamenec;77;49.881155;13.59629
1875;4;578207;Kamenec u Poličky;82;49.707914;16.233753
1876;4;538299;Kamenice;70;49.901587;14.582481
1877;4;587346;Kamenice;42;49.366633;15.780257
1878;4;548111;Kamenice nad Lipou;65;49.303096;15.075215
1879;4;561681;Kamenický Šenov;96;50.773661;14.472978
1880;4;571571;Kameničky;33;49.735965;15.975071
1881;4;580422;Kameničná;94;50.120209;16.434974
1882;4;536571;Kamenná;99;49.859353;17.031088
1883;4;535982;Kamenná;97;48.779854;14.671083
1884;4;587362;Kamenná;42;49.509998;15.652607
1885;4;590801;Kamenná;87;49.272469;16.060406
1886;4;578215;Kamenná Horka;82;49.737936;16.523971
1887;4;568848;Kamenná Lhota;37;49.643861;15.275284
1888;4;537276;Kamenné Zboží;59;50.192976;14.999499
1889;4;532452;Kamenné Žehrovice;47;50.12706;14.018165
1890;4;598631;Kamenný Malíkov;43;49.211958;15.122288
1891;4;513032;Kamenný Most;47;50.241482;14.205816
1892;4;539368;Kamenný Přívoz;71;49.863067;14.503446
1893;4;544663;Kamenný Újezd;97;48.89761;14.446387
1894;4;541150;Kamenný Újezd;77;49.723761;13.618808
1895;4;546771;Kamýk;53;50.558459;14.077477
1896;4;540439;Kamýk nad Vltavou;75;49.6391;14.253489
1897;4;566144;Kanice;34;49.475117;13.072739
1898;4;583197;Kanice;28;49.26373;16.714537
1899;4;531651;Kanina;57;50.424778;14.600027
1900;4;553778;Kaničky;34;49.47465;13.145547
1901;4;545562;Kaplice;98;48.738565;14.496272
1902;4;546542;Kardašova Řečice;43;49.184847;14.853174
1903;4;572748;Karle;82;49.766021;16.364776
1904;4;595845;Karlov;100;49.647047;15.914477
1905;4;597473;Karlova Studánka;29;50.073104;17.306917
1906;4;565288;Karlova Ves;76;49.987369;13.862466
1907;4;597481;Karlovice;29;50.105644;17.445697
1908;4;587052;Karlovice;91;49.176417;17.585828
1909;4;577219;Karlovice;79;50.562813;15.211306
1910;4;554961;Karlovy Vary;45;50.225975;12.882048
1911;4;599727;Karlík;71;49.935482;14.259572
1912;4;586242;Karlín;38;48.975795;16.977302
1913;4;531316;Karlštejn;25;49.937429;14.186112
1914;4;542911;Karolinka;89;49.351265;18.240081
1915;4;587354;Karolín;50;49.230602;17.434517
1916;4;598917;Karviná;46;49.854167;18.542778
1917;4;575151;Kasalice;64;50.118054;15.609733
1918;4;557862;Kasejovice;66;49.462792;13.740637
1919;4;568643;Kateřinice;58;49.669178;18.188211
1920;4;542946;Kateřinice;89;49.38209;17.885777
1921;4;530042;Katov;86;49.281783;14.828545
1922;4;587907;Katov;28;49.332727;16.278781
1923;4;551201;Katovice;81;49.273576;13.830381
1924;4;536008;Katusice;55;50.445168;14.777446
1925;4;559008;Kaznějov;68;49.893232;13.38301
1926;4;532444;Kačice;47;50.162697;13.988227
1927;4;562491;Kačlehy;43;49.108924;15.07708
1928;4;598275;Kaňovice;36;49.74429;18.396151
1929;4;585327;Kaňovice;91;49.109056;17.698753
1930;4;559903;Kařez;77;49.824341;13.781668
1931;4;530361;Kařízek;77;49.813451;13.799689
1932;4;585343;Kašava;91;49.295409;17.785678
1933;4;550256;Kašnice;30;48.996458;16.882843
1934;4;556432;Kašperské Hory;48;49.142992;13.556181
1935;4;557871;Kbel;66;49.493809;13.365635
1936;4;513415;Kbel;49;49.988281;15.143603
1937;4;538183;Kbelany;68;49.732441;13.126352
1938;4;549169;Kbelnice;44;50.459289;15.345508
1939;4;590819;Kdousov;87;48.986024;15.647306
1940;4;553786;Kdyně;34;49.390878;13.03971
1941;4;565016;Keblice;53;50.480127;14.101898
1942;4;529907;Keblov;24;49.677709;15.071934
1943;4;541826;Kejnice;48;49.266983;13.694215
1944;4;548120;Kejžlice;65;49.590528;15.392665
1945;4;592251;Kelníky;91;49.110889;17.644669
1946;4;542989;Kelč;89;49.47844;17.815359
1947;4;586251;Kelčany;38;49.005234;17.173797
1948;4;549487;Kestřany;73;49.269134;14.072564
1949;4;583201;Ketkovice;28;49.159151;16.26255
1950;4;559911;Klabava;77;49.753536;13.539327
1951;4;542997;Kladeruby;89;49.492719;17.865172
1952;4;590827;Kladeruby nad Oslavou;87;49.144848;16.17178
1953;4;589594;Kladky;72;49.650104;16.841292
1954;4;571580;Kladno;33;49.772514;15.98233
1955;4;532053;Kladno;47;50.143056;14.105278
1956;4;569283;Kladníky;74;49.483677;17.602954
1957;4;560405;Kladruby;81;49.268801;13.763483
1958;4;560928;Kladruby;83;49.715408;12.979962
1959;4;567604;Kladruby;84;50.615004;13.825606
1960;4;533084;Kladruby;24;49.723231;14.950099
1961;4;559920;Kladruby;77;49.912966;13.631752
1962;4;575178;Kladruby nad Labem;64;50.057767;15.487153
1963;4;570168;Klamoš;39;50.125632;15.501323
1964;4;565024;Klapý;53;50.43152;14.006564
1965;4;587371;Klatovec;42;49.222474;15.294711
1966;4;555771;Klatovy;48;49.395625;13.295089
1967;4;562688;Klec;43;49.099614;14.748058
1968;4;538311;Klecany;70;50.176063;14.411557
1969;4;565032;Kleneč;53;50.39266;14.24881
1970;4;563986;Klenovice;86;49.278844;14.715682
1971;4;589608;Klenovice na Hané;72;49.402931;17.211155
1972;4;541851;Klenová;48;49.33354;13.233215
1973;4;584541;Klentnice;30;48.844653;16.644681
1974;4;553794;Klenčí pod Čerchovem;34;49.434952;12.814762
1975;4;573787;Klešice;33;49.963659;15.681332
1976;4;599549;Klimkovice;63;49.788082;18.125896
1977;4;584550;Klobouky u Brna;30;48.995034;16.859517
1978;4;532461;Klobuky;47;50.294094;13.987566
1979;4;513628;Klokočná;70;49.95848;14.71858
1980;4;568856;Klokočov;37;49.80339;15.673226
1981;4;514047;Klokočí;74;49.560194;17.682301
1982;4;577227;Klokočí;79;50.599717;15.221707
1983;4;536687;Klopina;99;49.818578;17.019438
1984;4;589616;Klopotovice;72;49.44613;17.250791
1985;4;549495;Kluky;73;49.316862;14.245312
1986;4;534137;Kluky;51;49.908097;15.324233
1987;4;571075;Kluky;55;50.440282;14.725277
1988;4;540447;Klučenice;75;49.553211;14.212067
1989;4;590835;Klučov;87;49.167036;15.935094
1990;4;533386;Klučov;49;50.095077;14.910135
1991;4;534897;Kly;57;50.308865;14.501568
1992;4;557897;Klášter;66;49.501999;13.57671
1993;4;536024;Klášter Hradiště nad Jizerou;55;50.52347;14.944816
1994;4;563129;Klášterec nad Ohří;32;50.384557;13.171368
1995;4;580431;Klášterec nad Orlicí;94;50.11163;16.554555
1996;4;571687;Klášterní Skalice;49;50.023586;14.98535
1997;4;579386;Klášterská Lhota;85;50.55974;15.663676
1998;4;571211;Klínec;71;49.900931;14.343309
1999;4;567191;Klíny;56;50.638336;13.548222
2000;4;538329;Klíčany;70;50.202096;14.43452
2001;4;532479;Kmetiněves;47;50.309251;14.156226
2002;4;532487;Knovíz;47;50.212643;14.137026
2003;4;548286;Knyk;37;49.646987;15.578678
2004;4;581739;Knínice;26;49.539613;16.695058
2005;4;587389;Knínice;42;49.094058;15.604067
2006;4;586269;Kněždub;38;48.886672;17.39546
2007;4;581721;Kněževes;26;49.587056;16.423825
2008;4;539384;Kněževes;71;50.120263;14.26042
2009;4;595853;Kněževes;100;49.45652;15.980851
2010;4;541877;Kněževes;76;50.146677;13.637178
2011;4;537292;Kněžice;59;50.257265;15.335437
2012;4;574007;Kněžice;33;49.861856;15.527426
2013;4;590843;Kněžice;42;49.270827;15.672187
2014;4;551481;Kněžičky;59;50.173951;15.344902
2015;4;536041;Kněžmost;55;50.489233;15.038381
2016;4;573043;Kněžnice;44;50.49324;15.322533
2017;4;592269;Kněžpole;88;49.098554;17.516715
2018;4;548146;Koberovice;65;49.587625;15.262902
2019;4;563641;Koberovy;40;50.624715;15.228324
2020;4;507504;Kobeřice;62;49.985474;18.052176
2021;4;593141;Kobeřice u Brna;90;49.092205;16.885822
2022;4;573710;Kobylice;39;50.245877;15.587175
2023;4;531405;Kobylnice;51;50.006352;15.375761
2024;4;571172;Kobylnice;55;50.371697;15.053941
2025;4;583219;Kobylnice;28;49.138058;16.731836
2026;4;564141;Kobyly;52;50.61023;15.004434
2027;4;557218;Kobylá nad Vidnavkou;41;50.34196;17.123687
2028;4;584568;Kobylí;30;48.932881;16.891586
2029;4;579394;Kocbeře;85;50.4537;15.858806
2030;4;536601;Kocelovice;81;49.465157;13.827608
2031;4;536067;Kochánky;55;50.277096;14.780312
2032;4;548529;Kochánov;37;49.534226;15.540269
2033;4;578231;Koclířov;82;49.766321;16.539881
2034;4;579408;Kohoutov;85;50.451353;15.904875
2035;4;590851;Kojatice;87;48.998895;15.703129
2036;4;510645;Kojatín;87;49.242647;16.010192
2037;4;590860;Kojetice;87;49.15787;15.818055
2038;4;538345;Kojetice;57;50.238173;14.50856
2039;4;514055;Kojetín;74;49.351804;17.302089
2040;4;568881;Kojetín;37;49.657161;15.658125
2041;4;575194;Kojice;64;50.043032;15.386643
2042;4;593150;Kojátky;90;49.171821;17.026144
2043;4;598712;Kojčice;65;49.476009;15.25593
2044;4;541494;Kokašice;83;49.878397;12.947276
2045;4;514152;Kokory;74;49.494824;17.375469
2046;4;534901;Kokořín;57;50.42995;14.567303
2047;4;537306;Kolaje;59;50.155425;15.238511
2048;4;580465;Koldín;94;50.036855;16.25168
2049;4;532495;Koleč;47;50.198849;14.223479
2050;4;565199;Kolešov;76;50.157244;13.510109
2051;4;541893;Kolešovice;76;50.139736;13.610351
2052;4;556467;Kolinec;48;49.29905;13.439029
2053;4;570974;Kolomuty;55;50.40216;14.979076
2054;4;553816;Koloveč;34;49.486893;13.108806
2055;4;555258;Kolová;45;50.187546;12.903414
2056;4;533165;Kolín;49;50.028194;15.200634
2057;4;536733;Kolšov;99;49.903095;16.947481
2058;4;535877;Komařice;97;48.878522;14.545668
2059;4;507237;Komorní Lhotka;36;49.658086;18.527806
2060;4;548162;Komorovice;65;49.508748;15.345557
2061;4;593168;Komořany;90;49.216366;16.906797
2062;4;588598;Komárno;50;49.434574;17.780395
2063;4;549436;Komárov;91;49.150692;17.568761
2064;4;531324;Komárov;25;49.806586;13.856415
2065;4;547123;Komárov;61;49.76408;17.240991
2066;4;599280;Komárov;86;49.250137;14.594045
2067;4;590878;Komárovice;87;49.070036;15.701016
2068;4;592277;Komňa;88;48.99383;17.800815
2069;4;529931;Kondrac;24;49.667212;14.884551
2070;4;573051;Konecchlumí;44;50.402296;15.480316
2071;4;589624;Konice;72;49.590316;16.889147
2072;4;564761;Konojedy;70;49.948641;14.851311
2073;4;560952;Konstantinovy Lázně;83;49.881263;12.977932
2074;4;533394;Konárovice;49;50.041513;15.284283
2075;4;531332;Koněprusy;25;49.920975;14.065813
2076;4;531553;Konětopy;70;50.276474;14.653905
2077;4;590886;Koněšín;87;49.190533;16.041218
2078;4;573060;Kopidlno;44;50.330906;15.270376
2079;4;559024;Kopidlo;68;49.943294;13.46445
2080;4;599565;Kopřivnice;58;49.599461;18.144833
2081;4;553247;Kopřivná;99;50.046394;16.94682
2082;4;599204;Korkyně;75;49.780517;14.351384
2083;4;579033;Kornatice;77;49.659031;13.592265
2084;4;533793;Korno;25;49.920563;14.136922
2085;4;594253;Korolupy;92;48.930201;15.646199
2086;4;578258;Korouhev;82;49.671355;16.245826
2087;4;595861;Koroužné;100;49.527506;16.347667
2088;4;567221;Korozluky;56;50.478671;13.723071
2089;4;578266;Koruna;82;49.846829;16.714915
2090;4;559032;Koryta;68;49.900603;13.474814
2091;4;599557;Koryta;55;50.572015;15.011813
2092;4;592285;Korytná;88;48.940974;17.665197
2093;4;588601;Koryčany;50;49.106405;17.164337
2094;4;570176;Kosice;39;50.179791;15.534881
2095;4;570184;Kosičky;39;50.178653;15.55579
2096;4;570826;Kosmonosy;55;50.438562;14.930088
2097;4;536814;Kosov;99;49.883156;16.798768
2098;4;540498;Kosova Hora;75;49.654219;14.471776
2099;4;539392;Kosoř;71;49.987554;14.32664
2100;4;536121;Kosořice;55;50.333441;14.969717
2101;4;574449;Kosořín;94;49.979174;16.233781
2102;4;588521;Kostelany;50;49.203083;17.382859
2103;4;592293;Kostelany nad Moravou;88;49.045386;17.406939
2104;4;548928;Kostelec;44;50.381298;15.327356
2105;4;586277;Kostelec;38;49.026846;17.153203
2106;4;587401;Kostelec;42;49.361351;15.490696
2107;4;503916;Kostelec;83;49.674414;13.026431
2108;4;589632;Kostelec na Hané;72;49.513995;17.058272
2109;4;534935;Kostelec nad Labem;57;50.226604;14.585599
2110;4;576361;Kostelec nad Orlicí;78;50.122701;16.213254
2111;4;549509;Kostelec nad Vltavou;73;49.499968;14.211793
2112;4;533416;Kostelec nad Černými lesy;70;49.994101;14.859283
2113;4;571628;Kostelec u Heřmanova Městce;33;49.923369;15.651595
2114;4;588610;Kostelec u Holešova;50;49.374691;17.512149
2115;4;538370;Kostelec u Křížků;70;49.907094;14.557288
2116;4;576387;Kostelecké Horky;78;50.051691;16.206924
2117;4;536130;Kostelní Hlavno;70;50.257496;14.699058
2118;4;537314;Kostelní Lhota;59;50.129328;15.024274
2119;4;587419;Kostelní Myslová;42;49.147861;15.428904
2120;4;509108;Kostelní Radouň;43;49.225479;15.008749
2121;4;508357;Kostelní Vydří;43;49.106117;15.42167
2122;4;584576;Kostice;30;48.746871;16.978678
2123;4;590894;Kostníky;87;48.974757;15.639813
2124;4;537331;Kostomlaty nad Labem;59;50.184549;14.954054
2125;4;567612;Kostomlaty pod Milešovkou;84;50.560199;13.873153
2126;4;565059;Kostomlaty pod Řípem;53;50.383108;14.333156
2127;4;529630;Kostomlátky;59;50.171094;14.9841
2128;4;575232;Kostěnice;64;50.009609;15.90375
2129;4;513555;Kotenčice;75;49.736376;14.093862
2130;4;595870;Kotlasy;100;49.492753;15.94613
2131;4;534072;Kotopeky;25;49.856821;13.925215
2132;4;540633;Kotovice;66;49.672111;13.154525
2133;4;581763;Kotvrdovice;26;49.355129;16.784377
2134;4;537357;Kounice;59;50.107734;14.855993
2135;4;576395;Kounov;78;50.298806;16.258128
2136;4;541907;Kounov;76;50.212966;13.675173
2137;4;529681;Koupě;75;49.514868;13.918427
2138;4;553824;Kout na Šumavě;34;49.40266;13.00212
2139;4;534943;Kouty;59;50.193176;15.148824
2140;4;548189;Kouty;37;49.648846;15.293034
2141;4;590908;Kouty;87;49.31478;15.792716
2142;4;533424;Kouřim;49;50.00312;14.977096
2143;4;583227;Kovalovice;28;49.204643;16.819049
2144;4;572012;Kovanec;55;50.417773;14.776721
2145;4;537373;Kovanice;59;50.169526;15.070869
2146;4;548944;Kovač;44;50.396101;15.470896
2147;4;589641;Koválovice-Osíčany;72;49.285344;17.169908
2148;4;571971;Kováň;55;50.423374;14.777857
2149;4;549517;Kovářov;73;49.517681;14.278133
2150;4;563137;Kovářská;32;50.438322;13.053974
2151;4;578177;Kovčín;48;49.415925;13.606646
2152;4;590916;Kozlany;87;49.179772;16.061206
2153;4;550108;Kozlany;90;49.204087;17.035223
2154;4;568899;Kozlov;37;49.734613;15.293018
2155;4;587427;Kozlov;42;49.41309;15.700494
2156;4;500135;Kozlov;61;49.603333;17.534444
2157;4;595888;Kozlov;100;49.379184;16.078696
2158;4;540200;Kozlovice;66;49.465088;13.582865
2159;4;598321;Kozlovice;36;49.590383;18.256594
2160;4;530557;Kozly;54;50.456844;13.784607
2161;4;546232;Kozly;96;50.655419;14.456923
2162;4;529940;Kozmice;24;49.824848;14.796133
2163;4;547182;Kozmice;62;49.912791;18.155893
2164;4;559041;Kozojedy;68;49.931333;13.54247
2165;4;565385;Kozojedy;76;50.255373;13.815658
2166;4;533432;Kozojedy;70;49.997222;14.816111
2167;4;572136;Kozojedy;44;50.316484;15.374858
2168;4;586285;Kozojídky;38;48.918655;17.399623
2169;4;559059;Kozolupy;68;49.763897;13.252158
2170;4;571792;Kozomín;57;50.236892;14.371186
2171;4;581771;Kozárov;26;49.443865;16.458686
2172;4;540536;Kozárovice;75;49.555607;14.106523
2173;4;541559;Kočov;83;49.808771;12.736654
2174;4;571610;Kočí;33;49.94722;15.855569
2175;4;578771;Kočín;68;49.930479;13.476202
2176;4;581755;Kořenec;26;49.530341;16.753973
2177;4;533408;Kořenice;49;49.977174;15.140927
2178;4;563668;Kořenov;40;50.75931;15.365423
2179;4;507458;Košařiska;36;49.590063;18.694674
2180;4;548171;Košetice;65;49.558426;15.116306
2181;4;552585;Košice;86;49.325396;14.751429
2182;4;551465;Košice;51;49.895855;15.150898
2183;4;566284;Koštice;54;50.402807;13.942028
2184;4;566047;Košátky;55;50.317746;14.668534
2185;4;537349;Košík;59;50.31831;15.134133
2186;4;592307;Košíky;88;49.15759;17.416199
2187;4;562955;Košín;86;49.456476;14.658479
2188;4;567621;Košťany;84;50.655164;13.755647
2189;4;577235;Košťálov;79;50.571703;15.404125
2190;4;545309;Kožichovice;87;49.199905;15.921939
2191;4;559067;Kožlany;68;49.993988;13.541133
2192;4;561550;Kožlí;73;49.515853;14.146693
2193;4;568902;Kožlí;37;49.67037;15.253254
2194;4;503304;Kožušany-Tážaly;61;49.539736;17.253851
2195;4;593184;Kožušice;90;49.155105;17.184795
2196;4;548618;Kraborovice;37;49.800553;15.571924
2197;4;565067;Krabčice;53;50.405449;14.301405
2198;4;550710;Krahulov;87;49.222952;15.808157
2199;4;587435;Krahulčí;42;49.18183;15.414839
2200;4;560456;Krajková;80;50.216087;12.534155
2201;4;536342;Krajníčko;81;49.147629;14.028763
2202;4;565351;Krakov;76;50.037456;13.647533
2203;4;533441;Krakovany;49;50.06612;15.368932
2204;4;565369;Krakovec;76;50.018932;13.638305
2205;4;589659;Kralice na Hané;72;49.462976;17.180505
2206;4;590941;Kralice nad Oslavou;87;49.199309;16.201577
2207;4;559075;Kralovice;68;49.982015;13.48754
2208;4;534951;Kralupy nad Vltavou;57;50.241149;14.311575
2209;4;574546;Kramolna;60;50.420734;16.134901
2210;4;557943;Kramolín;66;49.446172;13.576995
2211;4;590959;Kramolín;87;49.134242;16.131937
2212;4;551261;Kraselov;81;49.227922;13.803971
2213;4;560472;Kraslice;80;50.323843;12.517556
2214;4;587443;Krasonice;42;49.115079;15.616058
2215;4;597511;Krasov;29;50.091774;17.546164
2216;4;581780;Krasová;26;49.361399;16.767953
2217;4;580490;Krasíkov;94;49.855606;16.695748
2218;4;561371;Krasíkovice;65;49.461692;15.228695
2219;4;583235;Kratochvilka;28;49.156685;16.376366
2220;4;570206;Kratonohy;39;50.169191;15.606986
2221;4;537136;Kratušín;69;49.020341;13.92852
2222;4;561720;Kravaře;96;50.632474;14.392513
2223;4;507580;Kravaře;62;49.932024;18.004772
2224;4;594261;Kravsko;92;48.921539;15.986325
2225;4;536806;Krašlovice;81;49.166675;14.132493
2226;4;559083;Krašovice;68;49.872443;13.3053
2227;4;537390;Krchleby;59;50.239225;15.022784
2228;4;548685;Krchleby;78;50.079142;16.234593
2229;4;569372;Krchleby;99;49.820737;16.833666
2230;4;534153;Krchleby;51;49.88895;15.35036
2231;4;536954;Krejnice;81;49.233815;13.718504
2232;4;529958;Krhanice;24;49.856082;14.557415
2233;4;590967;Krhov;87;49.100378;16.019422
2234;4;581798;Krhov;26;49.460287;16.583848
2235;4;594270;Krhovice;92;48.81585;16.173588
2236;4;500062;Krhová;89;49.491653;18.000295
2237;4;598348;Krmelín;36;49.729123;18.23545
2238;4;597520;Krnov;29;50.089667;17.703909
2239;4;536172;Krnsko;55;50.372475;14.86313
2240;4;590975;Krokočín;87;49.244122;16.232995
2241;4;561738;Krompach;96;50.828138;14.701623
2242;4;588296;Kroměříž;50;49.29786;17.393135
2243;4;536181;Kropáčova Vrutice;55;50.330602;14.717462
2244;4;571661;Krouna;33;49.772438;16.026791
2245;4;541940;Kroučová;76;50.20686;13.784024
2246;4;559091;Krsy;68;49.926347;13.055015
2247;4;563030;Krtov;86;49.348518;14.832509
2248;4;598500;Krty;76;50.0917;13.431988
2249;4;536555;Krty-Hradec;81;49.291394;13.84803
2250;4;568945;Krucemburk;37;49.688454;15.852112
2251;4;577243;Kruh;79;50.565588;15.480235
